[
  {
    "id": "1",
    "name": "Goroka Airport",
    "city": "Goroka",
    "country": "Papua New Guinea",
    "iata": "GKA",
    "icao": "AYGA",
    "coordinates": {
      "latitude": -6.081689834590001,
      "longitude": 145.391998291
    },
    "searchText": "goroka airport goroka gka ayga"
  },
  {
    "id": "2",
    "name": "Madang Airport",
    "city": "Madang",
    "country": "Papua New Guinea",
    "iata": "MAG",
    "icao": "AYMD",
    "coordinates": {
      "latitude": -5.20707988739,
      "longitude": 145.789001465
    },
    "searchText": "madang airport madang mag aymd"
  },
  {
    "id": "3",
    "name": "Mount Hagen Kagamuga Airport",
    "city": "Mount Hagen",
    "country": "Papua New Guinea",
    "iata": "HGU",
    "icao": "AYMH",
    "coordinates": {
      "latitude": -5.826789855957031,
      "longitude": 144.29600524902344
    },
    "searchText": "mount hagen kagamuga airport mount hagen hgu aymh"
  },
  {
    "id": "4",
    "name": "Nadzab Airport",
    "city": "Nadzab",
    "country": "Papua New Guinea",
    "iata": "LAE",
    "icao": "AYNZ",
    "coordinates": {
      "latitude": -6.569803,
      "longitude": 146.725977
    },
    "searchText": "nadzab airport nadzab lae aynz"
  },
  {
    "id": "5",
    "name": "Port Moresby Jacksons International Airport",
    "city": "Port Moresby",
    "country": "Papua New Guinea",
    "iata": "POM",
    "icao": "AYPY",
    "coordinates": {
      "latitude": -9.443380355834961,
      "longitude": 147.22000122070312
    },
    "searchText": "port moresby jacksons international airport port moresby pom aypy"
  },
  {
    "id": "6",
    "name": "Wewak International Airport",
    "city": "Wewak",
    "country": "Papua New Guinea",
    "iata": "WWK",
    "icao": "AYWK",
    "coordinates": {
      "latitude": -3.58383011818,
      "longitude": 143.669006348
    },
    "searchText": "wewak international airport wewak wwk aywk"
  },
  {
    "id": "7",
    "name": "Narsarsuaq Airport",
    "city": "Narssarssuaq",
    "country": "Greenland",
    "iata": "UAK",
    "icao": "BGBW",
    "coordinates": {
      "latitude": 61.1604995728,
      "longitude": -45.4259986877
    },
    "searchText": "narsarsuaq airport narssarssuaq uak bgbw"
  },
  {
    "id": "8",
    "name": "Godthaab / Nuuk Airport",
    "city": "Godthaab",
    "country": "Greenland",
    "iata": "GOH",
    "icao": "BGGH",
    "coordinates": {
      "latitude": 64.19090271,
      "longitude": -51.6781005859
    },
    "searchText": "godthaab / nuuk airport godthaab goh bggh"
  },
  {
    "id": "9",
    "name": "Kangerlussuaq Airport",
    "city": "Sondrestrom",
    "country": "Greenland",
    "iata": "SFJ",
    "icao": "BGSF",
    "coordinates": {
      "latitude": 67.0122218992,
      "longitude": -50.7116031647
    },
    "searchText": "kangerlussuaq airport sondrestrom sfj bgsf"
  },
  {
    "id": "10",
    "name": "Thule Air Base",
    "city": "Thule",
    "country": "Greenland",
    "iata": "THU",
    "icao": "BGTL",
    "coordinates": {
      "latitude": 76.5311965942,
      "longitude": -68.7032012939
    },
    "searchText": "thule air base thule thu bgtl"
  },
  {
    "id": "11",
    "name": "Akureyri Airport",
    "city": "Akureyri",
    "country": "Iceland",
    "iata": "AEY",
    "icao": "BIAR",
    "coordinates": {
      "latitude": 65.66000366210938,
      "longitude": -18.07270050048828
    },
    "searchText": "akureyri airport akureyri aey biar"
  },
  {
    "id": "12",
    "name": "Egilsstaðir Airport",
    "city": "Egilsstadir",
    "country": "Iceland",
    "iata": "EGS",
    "icao": "BIEG",
    "coordinates": {
      "latitude": 65.2833023071289,
      "longitude": -14.401399612426758
    },
    "searchText": "egilsstaðir airport egilsstadir egs bieg"
  },
  {
    "id": "13",
    "name": "Hornafjörður Airport",
    "city": "Hofn",
    "country": "Iceland",
    "iata": "HFN",
    "icao": "BIHN",
    "coordinates": {
      "latitude": 64.295601,
      "longitude": -15.2272
    },
    "searchText": "hornafjörður airport hofn hfn bihn"
  },
  {
    "id": "14",
    "name": "Húsavík Airport",
    "city": "Husavik",
    "country": "Iceland",
    "iata": "HZK",
    "icao": "BIHU",
    "coordinates": {
      "latitude": 65.952301,
      "longitude": -17.426001
    },
    "searchText": "húsavík airport husavik hzk bihu"
  },
  {
    "id": "15",
    "name": "Ísafjörður Airport",
    "city": "Isafjordur",
    "country": "Iceland",
    "iata": "IFJ",
    "icao": "BIIS",
    "coordinates": {
      "latitude": 66.05809783935547,
      "longitude": -23.135299682617188
    },
    "searchText": "ísafjörður airport isafjordur ifj biis"
  },
  {
    "id": "16",
    "name": "Keflavik International Airport",
    "city": "Keflavik",
    "country": "Iceland",
    "iata": "KEF",
    "icao": "BIKF",
    "coordinates": {
      "latitude": 63.985000610352,
      "longitude": -22.605600357056
    },
    "searchText": "keflavik international airport keflavik kef bikf"
  },
  {
    "id": "17",
    "name": "Patreksfjörður Airport",
    "city": "Patreksfjordur",
    "country": "Iceland",
    "iata": "PFJ",
    "icao": "BIPA",
    "coordinates": {
      "latitude": 65.555801,
      "longitude": -23.965
    },
    "searchText": "patreksfjörður airport patreksfjordur pfj bipa"
  },
  {
    "id": "18",
    "name": "Reykjavik Airport",
    "city": "Reykjavik",
    "country": "Iceland",
    "iata": "RKV",
    "icao": "BIRK",
    "coordinates": {
      "latitude": 64.1299972534,
      "longitude": -21.9405994415
    },
    "searchText": "reykjavik airport reykjavik rkv birk"
  },
  {
    "id": "19",
    "name": "Siglufjörður Airport",
    "city": "Siglufjordur",
    "country": "Iceland",
    "iata": "SIJ",
    "icao": "BISI",
    "coordinates": {
      "latitude": 66.133301,
      "longitude": -18.9167
    },
    "searchText": "siglufjörður airport siglufjordur sij bisi"
  },
  {
    "id": "20",
    "name": "Vestmannaeyjar Airport",
    "city": "Vestmannaeyjar",
    "country": "Iceland",
    "iata": "VEY",
    "icao": "BIVM",
    "coordinates": {
      "latitude": 63.42430114746094,
      "longitude": -20.278900146484375
    },
    "searchText": "vestmannaeyjar airport vestmannaeyjar vey bivm"
  },
  {
    "id": "21",
    "name": "Sault Ste Marie Airport",
    "city": "Sault Sainte Marie",
    "country": "Canada",
    "iata": "YAM",
    "icao": "CYAM",
    "coordinates": {
      "latitude": 46.48500061035156,
      "longitude": -84.5093994140625
    },
    "searchText": "sault ste marie airport sault sainte marie yam cyam"
  },
  {
    "id": "24",
    "name": "St. Anthony Airport",
    "city": "St. Anthony",
    "country": "Canada",
    "iata": "YAY",
    "icao": "CYAY",
    "coordinates": {
      "latitude": 51.3918991089,
      "longitude": -56.083099365200006
    },
    "searchText": "st. anthony airport st. anthony yay cyay"
  },
  {
    "id": "25",
    "name": "Tofino / Long Beach Airport",
    "city": "Tofino",
    "country": "Canada",
    "iata": "YAZ",
    "icao": "CYAZ",
    "coordinates": {
      "latitude": 49.079833,
      "longitude": -125.775583
    },
    "searchText": "tofino / long beach airport tofino yaz cyaz"
  },
  {
    "id": "26",
    "name": "Kugaaruk Airport",
    "city": "Pelly Bay",
    "country": "Canada",
    "iata": "YBB",
    "icao": "CYBB",
    "coordinates": {
      "latitude": 68.534401,
      "longitude": -89.808098
    },
    "searchText": "kugaaruk airport pelly bay ybb cybb"
  },
  {
    "id": "27",
    "name": "Baie Comeau Airport",
    "city": "Baie Comeau",
    "country": "Canada",
    "iata": "YBC",
    "icao": "CYBC",
    "coordinates": {
      "latitude": 49.13249969482422,
      "longitude": -68.20439910888672
    },
    "searchText": "baie comeau airport baie comeau ybc cybc"
  },
  {
    "id": "28",
    "name": "CFB Bagotville",
    "city": "Bagotville",
    "country": "Canada",
    "iata": "YBG",
    "icao": "CYBG",
    "coordinates": {
      "latitude": 48.33060073852539,
      "longitude": -70.99639892578125
    },
    "searchText": "cfb bagotville bagotville ybg cybg"
  },
  {
    "id": "29",
    "name": "Baker Lake Airport",
    "city": "Baker Lake",
    "country": "Canada",
    "iata": "YBK",
    "icao": "CYBK",
    "coordinates": {
      "latitude": 64.29889678960001,
      "longitude": -96.077796936
    },
    "searchText": "baker lake airport baker lake ybk cybk"
  },
  {
    "id": "30",
    "name": "Campbell River Airport",
    "city": "Campbell River",
    "country": "Canada",
    "iata": "YBL",
    "icao": "CYBL",
    "coordinates": {
      "latitude": 49.950801849365234,
      "longitude": -125.27100372314453
    },
    "searchText": "campbell river airport campbell river ybl cybl"
  },
  {
    "id": "31",
    "name": "Brandon Municipal Airport",
    "city": "Brandon",
    "country": "Canada",
    "iata": "YBR",
    "icao": "CYBR",
    "coordinates": {
      "latitude": 49.91,
      "longitude": -99.951897
    },
    "searchText": "brandon municipal airport brandon ybr cybr"
  },
  {
    "id": "32",
    "name": "Cambridge Bay Airport",
    "city": "Cambridge Bay",
    "country": "Canada",
    "iata": "YCB",
    "icao": "CYCB",
    "coordinates": {
      "latitude": 69.1081008911,
      "longitude": -105.138000488
    },
    "searchText": "cambridge bay airport cambridge bay ycb cycb"
  },
  {
    "id": "33",
    "name": "Nanaimo Airport",
    "city": "Nanaimo",
    "country": "Canada",
    "iata": "YCD",
    "icao": "CYCD",
    "coordinates": {
      "latitude": 49.054970224899996,
      "longitude": -123.869862556
    },
    "searchText": "nanaimo airport nanaimo ycd cycd"
  },
  {
    "id": "34",
    "name": "Castlegar/West Kootenay Regional Airport",
    "city": "Castlegar",
    "country": "Canada",
    "iata": "YCG",
    "icao": "CYCG",
    "coordinates": {
      "latitude": 49.2963981628,
      "longitude": -117.632003784
    },
    "searchText": "castlegar/west kootenay regional airport castlegar ycg cycg"
  },
  {
    "id": "35",
    "name": "Miramichi Airport",
    "city": "Chatham",
    "country": "Canada",
    "iata": "YCH",
    "icao": "CYCH",
    "coordinates": {
      "latitude": 47.007801,
      "longitude": -65.449203
    },
    "searchText": "miramichi airport chatham ych cych"
  },
  {
    "id": "36",
    "name": "Charlo Airport",
    "city": "Charlo",
    "country": "Canada",
    "iata": "YCL",
    "icao": "CYCL",
    "coordinates": {
      "latitude": 47.990799,
      "longitude": -66.330299
    },
    "searchText": "charlo airport charlo ycl cycl"
  },
  {
    "id": "37",
    "name": "Kugluktuk Airport",
    "city": "Coppermine",
    "country": "Canada",
    "iata": "YCO",
    "icao": "CYCO",
    "coordinates": {
      "latitude": 67.816704,
      "longitude": -115.143997
    },
    "searchText": "kugluktuk airport coppermine yco cyco"
  },
  {
    "id": "38",
    "name": "Coronation Airport",
    "city": "Coronation",
    "country": "Canada",
    "iata": "YCT",
    "icao": "CYCT",
    "coordinates": {
      "latitude": 52.0750007629,
      "longitude": -111.444999695
    },
    "searchText": "coronation airport coronation yct cyct"
  },
  {
    "id": "39",
    "name": "Chilliwack Airport",
    "city": "Chilliwack",
    "country": "Canada",
    "iata": "YCW",
    "icao": "CYCW",
    "coordinates": {
      "latitude": 49.1528015137,
      "longitude": -121.939002991
    },
    "searchText": "chilliwack airport chilliwack ycw cycw"
  },
  {
    "id": "40",
    "name": "Clyde River Airport",
    "city": "Clyde River",
    "country": "Canada",
    "iata": "YCY",
    "icao": "CYCY",
    "coordinates": {
      "latitude": 70.4860992432,
      "longitude": -68.5167007446
    },
    "searchText": "clyde river airport clyde river ycy cycy"
  },
  {
    "id": "41",
    "name": "Coral Harbour Airport",
    "city": "Coral Harbour",
    "country": "Canada",
    "iata": "YZS",
    "icao": "CYZS",
    "coordinates": {
      "latitude": 64.1932983398,
      "longitude": -83.3593978882
    },
    "searchText": "coral harbour airport coral harbour yzs cyzs"
  },
  {
    "id": "42",
    "name": "Dawson City Airport",
    "city": "Dawson",
    "country": "Canada",
    "iata": "YDA",
    "icao": "CYDA",
    "coordinates": {
      "latitude": 64.04309844970703,
      "longitude": -139.1280059814453
    },
    "searchText": "dawson city airport dawson yda cyda"
  },
  {
    "id": "43",
    "name": "Burwash Airport",
    "city": "Burwash",
    "country": "Canada",
    "iata": "YDB",
    "icao": "CYDB",
    "coordinates": {
      "latitude": 61.37110137939453,
      "longitude": -139.04100036621094
    },
    "searchText": "burwash airport burwash ydb cydb"
  },
  {
    "id": "45",
    "name": "Deer Lake Airport",
    "city": "Deer Lake",
    "country": "Canada",
    "iata": "YDF",
    "icao": "CYDF",
    "coordinates": {
      "latitude": 49.21080017089844,
      "longitude": -57.39139938354492
    },
    "searchText": "deer lake airport deer lake ydf cydf"
  },
  {
    "id": "46",
    "name": "Dease Lake Airport",
    "city": "Dease Lake",
    "country": "Canada",
    "iata": "YDL",
    "icao": "CYDL",
    "coordinates": {
      "latitude": 58.4221992493,
      "longitude": -130.031997681
    },
    "searchText": "dease lake airport dease lake ydl cydl"
  },
  {
    "id": "47",
    "name": "Dauphin Barker Airport",
    "city": "Dauphin",
    "country": "Canada",
    "iata": "YDN",
    "icao": "CYDN",
    "coordinates": {
      "latitude": 51.100799560546875,
      "longitude": -100.052001953125
    },
    "searchText": "dauphin barker airport dauphin ydn cydn"
  },
  {
    "id": "48",
    "name": "Dawson Creek Airport",
    "city": "Dawson Creek",
    "country": "Canada",
    "iata": "YDQ",
    "icao": "CYDQ",
    "coordinates": {
      "latitude": 55.7422981262207,
      "longitude": -120.18299865722656
    },
    "searchText": "dawson creek airport dawson creek ydq cydq"
  },
  {
    "id": "49",
    "name": "Edmonton International Airport",
    "city": "Edmonton",
    "country": "Canada",
    "iata": "YEG",
    "icao": "CYEG",
    "coordinates": {
      "latitude": 53.309700012200004,
      "longitude": -113.580001831
    },
    "searchText": "edmonton international airport edmonton yeg cyeg"
  },
  {
    "id": "50",
    "name": "Arviat Airport",
    "city": "Eskimo Point",
    "country": "Canada",
    "iata": "YEK",
    "icao": "CYEK",
    "coordinates": {
      "latitude": 61.0942001343,
      "longitude": -94.07080078119999
    },
    "searchText": "arviat airport eskimo point yek cyek"
  },
  {
    "id": "51",
    "name": "Estevan Airport",
    "city": "Estevan",
    "country": "Canada",
    "iata": "YEN",
    "icao": "CYEN",
    "coordinates": {
      "latitude": 49.2103004456,
      "longitude": -102.966003418
    },
    "searchText": "estevan airport estevan yen cyen"
  },
  {
    "id": "52",
    "name": "Edson Airport",
    "city": "Edson",
    "country": "Canada",
    "iata": "YET",
    "icao": "CYET",
    "coordinates": {
      "latitude": 53.578899383499994,
      "longitude": -116.464996338
    },
    "searchText": "edson airport edson yet cyet"
  },
  {
    "id": "53",
    "name": "Eureka Airport",
    "city": "Eureka",
    "country": "Canada",
    "iata": "YEU",
    "icao": "CYEU",
    "coordinates": {
      "latitude": 79.9946975708,
      "longitude": -85.814201355
    },
    "searchText": "eureka airport eureka yeu cyeu"
  },
  {
    "id": "54",
    "name": "Inuvik Mike Zubko Airport",
    "city": "Inuvik",
    "country": "Canada",
    "iata": "YEV",
    "icao": "CYEV",
    "coordinates": {
      "latitude": 68.30419921880001,
      "longitude": -133.483001709
    },
    "searchText": "inuvik mike zubko airport inuvik yev cyev"
  },
  {
    "id": "55",
    "name": "Iqaluit Airport",
    "city": "Iqaluit",
    "country": "Canada",
    "iata": "YFB",
    "icao": "CYFB",
    "coordinates": {
      "latitude": 63.756402,
      "longitude": -68.555801
    },
    "searchText": "iqaluit airport iqaluit yfb cyfb"
  },
  {
    "id": "56",
    "name": "Fredericton Airport",
    "city": "Fredericton",
    "country": "Canada",
    "iata": "YFC",
    "icao": "CYFC",
    "coordinates": {
      "latitude": 45.868900299072266,
      "longitude": -66.53720092773438
    },
    "searchText": "fredericton airport fredericton yfc cyfc"
  },
  {
    "id": "57",
    "name": "Forestville Airport",
    "city": "Forestville",
    "country": "Canada",
    "iata": "YFE",
    "icao": "CYFE",
    "coordinates": {
      "latitude": 48.74610137939453,
      "longitude": -69.09719848632812
    },
    "searchText": "forestville airport forestville yfe cyfe"
  },
  {
    "id": "58",
    "name": "Flin Flon Airport",
    "city": "Flin Flon",
    "country": "Canada",
    "iata": "YFO",
    "icao": "CYFO",
    "coordinates": {
      "latitude": 54.6781005859375,
      "longitude": -101.68199920654297
    },
    "searchText": "flin flon airport flin flon yfo cyfo"
  },
  {
    "id": "59",
    "name": "Fort Resolution Airport",
    "city": "Fort Resolution",
    "country": "Canada",
    "iata": "YFR",
    "icao": "CYFR",
    "coordinates": {
      "latitude": 61.1808013916,
      "longitude": -113.690002441
    },
    "searchText": "fort resolution airport fort resolution yfr cyfr"
  },
  {
    "id": "60",
    "name": "Fort Simpson Airport",
    "city": "Fort Simpson",
    "country": "Canada",
    "iata": "YFS",
    "icao": "CYFS",
    "coordinates": {
      "latitude": 61.76020050048828,
      "longitude": -121.23699951171875
    },
    "searchText": "fort simpson airport fort simpson yfs cyfs"
  },
  {
    "id": "61",
    "name": "Kingston Norman Rogers Airport",
    "city": "Kingston",
    "country": "Canada",
    "iata": "YGK",
    "icao": "CYGK",
    "coordinates": {
      "latitude": 44.22529983520508,
      "longitude": -76.5969009399414
    },
    "searchText": "kingston norman rogers airport kingston ygk cygk"
  },
  {
    "id": "62",
    "name": "La Grande Rivière Airport",
    "city": "La Grande Riviere",
    "country": "Canada",
    "iata": "YGL",
    "icao": "CYGL",
    "coordinates": {
      "latitude": 53.625301361083984,
      "longitude": -77.7042007446289
    },
    "searchText": "la grande rivière airport la grande riviere ygl cygl"
  },
  {
    "id": "63",
    "name": "Gaspé (Michel-Pouliot) Airport",
    "city": "Gaspe",
    "country": "Canada",
    "iata": "YGP",
    "icao": "CYGP",
    "coordinates": {
      "latitude": 48.7752990723,
      "longitude": -64.4785995483
    },
    "searchText": "gaspé (michel-pouliot) airport gaspe ygp cygp"
  },
  {
    "id": "64",
    "name": "Geraldton Greenstone Regional Airport",
    "city": "Geraldton",
    "country": "Canada",
    "iata": "YGQ",
    "icao": "CYGQ",
    "coordinates": {
      "latitude": 49.77830123901367,
      "longitude": -86.93939971923828
    },
    "searchText": "geraldton greenstone regional airport geraldton ygq cygq"
  },
  {
    "id": "65",
    "name": "Îles-de-la-Madeleine Airport",
    "city": "Iles De La Madeleine",
    "country": "Canada",
    "iata": "YGR",
    "icao": "CYGR",
    "coordinates": {
      "latitude": 47.42470169067383,
      "longitude": -61.778099060058594
    },
    "searchText": "îles-de-la-madeleine airport iles de la madeleine ygr cygr"
  },
  {
    "id": "66",
    "name": "Hudson Bay Airport",
    "city": "Hudson Bay",
    "country": "Canada",
    "iata": "YHB",
    "icao": "CYHB",
    "coordinates": {
      "latitude": 52.8166999817,
      "longitude": -102.310997009
    },
    "searchText": "hudson bay airport hudson bay yhb cyhb"
  },
  {
    "id": "67",
    "name": "Dryden Regional Airport",
    "city": "Dryden",
    "country": "Canada",
    "iata": "YHD",
    "icao": "CYHD",
    "coordinates": {
      "latitude": 49.831699,
      "longitude": -92.744202
    },
    "searchText": "dryden regional airport dryden yhd cyhd"
  },
  {
    "id": "68",
    "name": "Ulukhaktok Holman Airport",
    "city": "Holman Island",
    "country": "Canada",
    "iata": "YHI",
    "icao": "CYHI",
    "coordinates": {
      "latitude": 70.76280212402344,
      "longitude": -117.80599975585938
    },
    "searchText": "ulukhaktok holman airport holman island yhi cyhi"
  },
  {
    "id": "69",
    "name": "Gjoa Haven Airport",
    "city": "Gjoa Haven",
    "country": "Canada",
    "iata": "YHK",
    "icao": "CYHK",
    "coordinates": {
      "latitude": 68.635597229,
      "longitude": -95.84970092770001
    },
    "searchText": "gjoa haven airport gjoa haven yhk cyhk"
  },
  {
    "id": "70",
    "name": "John C. Munro Hamilton International Airport",
    "city": "Hamilton",
    "country": "Canada",
    "iata": "YHM",
    "icao": "CYHM",
    "coordinates": {
      "latitude": 43.173599243199995,
      "longitude": -79.93499755859999
    },
    "searchText": "john c. munro hamilton international airport hamilton yhm cyhm"
  },
  {
    "id": "71",
    "name": "Montréal / Saint-Hubert Airport",
    "city": "Montreal",
    "country": "Canada",
    "iata": "YHU",
    "icao": "CYHU",
    "coordinates": {
      "latitude": 45.5175018311,
      "longitude": -73.4169006348
    },
    "searchText": "montréal / saint-hubert airport montreal yhu cyhu"
  },
  {
    "id": "72",
    "name": "Hay River / Merlyn Carter Airport",
    "city": "Hay River",
    "country": "Canada",
    "iata": "YHY",
    "icao": "CYHY",
    "coordinates": {
      "latitude": 60.8396987915,
      "longitude": -115.782997131
    },
    "searchText": "hay river / merlyn carter airport hay river yhy cyhy"
  },
  {
    "id": "73",
    "name": "Halifax / Stanfield International Airport",
    "city": "Halifax",
    "country": "Canada",
    "iata": "YHZ",
    "icao": "CYHZ",
    "coordinates": {
      "latitude": 44.8807983398,
      "longitude": -63.5085983276
    },
    "searchText": "halifax / stanfield international airport halifax yhz cyhz"
  },
  {
    "id": "74",
    "name": "Atikokan Municipal Airport",
    "city": "Atikokan",
    "country": "Canada",
    "iata": "YIB",
    "icao": "CYIB",
    "coordinates": {
      "latitude": 48.7738990784,
      "longitude": -91.6386032104
    },
    "searchText": "atikokan municipal airport atikokan yib cyib"
  },
  {
    "id": "75",
    "name": "Pond Inlet Airport",
    "city": "Pond Inlet",
    "country": "Canada",
    "iata": "YIO",
    "icao": "CYIO",
    "coordinates": {
      "latitude": 72.6832962036,
      "longitude": -77.9666976929
    },
    "searchText": "pond inlet airport pond inlet yio cyio"
  },
  {
    "id": "76",
    "name": "St Jean Airport",
    "city": "St. Jean",
    "country": "Canada",
    "iata": "YJN",
    "icao": "CYJN",
    "coordinates": {
      "latitude": 45.29439926147461,
      "longitude": -73.28109741210938
    },
    "searchText": "st jean airport st. jean yjn cyjn"
  },
  {
    "id": "77",
    "name": "Stephenville Airport",
    "city": "Stephenville",
    "country": "Canada",
    "iata": "YJT",
    "icao": "CYJT",
    "coordinates": {
      "latitude": 48.5442008972168,
      "longitude": -58.54999923706055
    },
    "searchText": "stephenville airport stephenville yjt cyjt"
  },
  {
    "id": "78",
    "name": "Kamloops Airport",
    "city": "Kamloops",
    "country": "Canada",
    "iata": "YKA",
    "icao": "CYKA",
    "coordinates": {
      "latitude": 50.7022018433,
      "longitude": -120.444000244
    },
    "searchText": "kamloops airport kamloops yka cyka"
  },
  {
    "id": "79",
    "name": "Waterloo Airport",
    "city": "Waterloo",
    "country": "Canada",
    "iata": "YKF",
    "icao": "CYKF",
    "coordinates": {
      "latitude": 43.460800170899994,
      "longitude": -80.3786010742
    },
    "searchText": "waterloo airport waterloo ykf cykf"
  },
  {
    "id": "80",
    "name": "Schefferville Airport",
    "city": "Schefferville",
    "country": "Canada",
    "iata": "YKL",
    "icao": "CYKL",
    "coordinates": {
      "latitude": 54.805301666259766,
      "longitude": -66.8052978515625
    },
    "searchText": "schefferville airport schefferville ykl cykl"
  },
  {
    "id": "81",
    "name": "Kindersley Airport",
    "city": "Kindersley",
    "country": "Canada",
    "iata": "YKY",
    "icao": "CYKY",
    "coordinates": {
      "latitude": 51.5175018311,
      "longitude": -109.180999756
    },
    "searchText": "kindersley airport kindersley yky cyky"
  },
  {
    "id": "82",
    "name": "Buttonville Municipal Airport",
    "city": "Toronto",
    "country": "Canada",
    "iata": "YKZ",
    "icao": "CYKZ",
    "coordinates": {
      "latitude": 43.86220169067383,
      "longitude": -79.37000274658203
    },
    "searchText": "buttonville municipal airport toronto ykz cykz"
  },
  {
    "id": "83",
    "name": "Chapleau Airport",
    "city": "Chapleau",
    "country": "Canada",
    "iata": "YLD",
    "icao": "CYLD",
    "coordinates": {
      "latitude": 47.81999969482422,
      "longitude": -83.3467025756836
    },
    "searchText": "chapleau airport chapleau yld cyld"
  },
  {
    "id": "84",
    "name": "Meadow Lake Airport",
    "city": "Meadow Lake",
    "country": "Canada",
    "iata": "YLJ",
    "icao": "CYLJ",
    "coordinates": {
      "latitude": 54.125301361083984,
      "longitude": -108.52300262451172
    },
    "searchText": "meadow lake airport meadow lake ylj cylj"
  },
  {
    "id": "85",
    "name": "Lloydminster Airport",
    "city": "Lloydminster",
    "country": "Canada",
    "iata": "YLL",
    "icao": "CYLL",
    "coordinates": {
      "latitude": 53.309200286865234,
      "longitude": -110.072998046875
    },
    "searchText": "lloydminster airport lloydminster yll cyll"
  },
  {
    "id": "86",
    "name": "Alert Airport",
    "city": "Alert",
    "country": "Canada",
    "iata": "YLT",
    "icao": "CYLT",
    "coordinates": {
      "latitude": 82.51779937740001,
      "longitude": -62.2806015015
    },
    "searchText": "alert airport alert ylt cylt"
  },
  {
    "id": "87",
    "name": "Kelowna International Airport",
    "city": "Kelowna",
    "country": "Canada",
    "iata": "YLW",
    "icao": "CYLW",
    "coordinates": {
      "latitude": 49.9561004639,
      "longitude": -119.377998352
    },
    "searchText": "kelowna international airport kelowna ylw cylw"
  },
  {
    "id": "88",
    "name": "Mayo Airport",
    "city": "Mayo",
    "country": "Canada",
    "iata": "YMA",
    "icao": "CYMA",
    "coordinates": {
      "latitude": 63.61640167236328,
      "longitude": -135.8679962158203
    },
    "searchText": "mayo airport mayo yma cyma"
  },
  {
    "id": "89",
    "name": "Moose Jaw Air Vice Marshal C. M. McEwen Airport",
    "city": "Moose Jaw",
    "country": "Canada",
    "iata": "YMJ",
    "icao": "CYMJ",
    "coordinates": {
      "latitude": 50.330299377441406,
      "longitude": -105.55899810791016
    },
    "searchText": "moose jaw air vice marshal c. m. mcewen airport moose jaw ymj cymj"
  },
  {
    "id": "90",
    "name": "Fort McMurray Airport",
    "city": "Fort Mcmurray",
    "country": "Canada",
    "iata": "YMM",
    "icao": "CYMM",
    "coordinates": {
      "latitude": 56.653301239,
      "longitude": -111.222000122
    },
    "searchText": "fort mcmurray airport fort mcmurray ymm cymm"
  },
  {
    "id": "91",
    "name": "Moosonee Airport",
    "city": "Moosonee",
    "country": "Canada",
    "iata": "YMO",
    "icao": "CYMO",
    "coordinates": {
      "latitude": 51.291099548339844,
      "longitude": -80.60780334472656
    },
    "searchText": "moosonee airport moosonee ymo cymo"
  },
  {
    "id": "92",
    "name": "Maniwaki Airport",
    "city": "Maniwaki",
    "country": "Canada",
    "iata": "YMW",
    "icao": "CYMW",
    "coordinates": {
      "latitude": 46.2728004456,
      "longitude": -75.9906005859
    },
    "searchText": "maniwaki airport maniwaki ymw cymw"
  },
  {
    "id": "93",
    "name": "Montreal International (Mirabel) Airport",
    "city": "Montreal",
    "country": "Canada",
    "iata": "YMX",
    "icao": "CYMX",
    "coordinates": {
      "latitude": 45.679501,
      "longitude": -74.038696
    },
    "searchText": "montreal international (mirabel) airport montreal ymx cymx"
  },
  {
    "id": "94",
    "name": "Natashquan Airport",
    "city": "Natashquan",
    "country": "Canada",
    "iata": "YNA",
    "icao": "CYNA",
    "coordinates": {
      "latitude": 50.189998626708984,
      "longitude": -61.78919982910156
    },
    "searchText": "natashquan airport natashquan yna cyna"
  },
  {
    "id": "95",
    "name": "Ottawa / Gatineau Airport",
    "city": "Gatineau",
    "country": "Canada",
    "iata": "YND",
    "icao": "CYND",
    "coordinates": {
      "latitude": 45.521701812699995,
      "longitude": -75.5635986328
    },
    "searchText": "ottawa / gatineau airport gatineau ynd cynd"
  },
  {
    "id": "96",
    "name": "Matagami Airport",
    "city": "Matagami",
    "country": "Canada",
    "iata": "YNM",
    "icao": "CYNM",
    "coordinates": {
      "latitude": 49.76169967651367,
      "longitude": -77.80280303955078
    },
    "searchText": "matagami airport matagami ynm cynm"
  },
  {
    "id": "97",
    "name": "Old Crow Airport",
    "city": "Old Crow",
    "country": "Canada",
    "iata": "YOC",
    "icao": "CYOC",
    "coordinates": {
      "latitude": 67.57060241699219,
      "longitude": -139.83900451660156
    },
    "searchText": "old crow airport old crow yoc cyoc"
  },
  {
    "id": "98",
    "name": "CFB Cold Lake",
    "city": "Cold Lake",
    "country": "Canada",
    "iata": "YOD",
    "icao": "CYOD",
    "coordinates": {
      "latitude": 54.404998779296875,
      "longitude": -110.27899932861328
    },
    "searchText": "cfb cold lake cold lake yod cyod"
  },
  {
    "id": "99",
    "name": "High Level Airport",
    "city": "High Level",
    "country": "Canada",
    "iata": "YOJ",
    "icao": "CYOJ",
    "coordinates": {
      "latitude": 58.62139892578125,
      "longitude": -117.16500091552734
    },
    "searchText": "high level airport high level yoj cyoj"
  },
  {
    "id": "100",
    "name": "Ottawa Macdonald-Cartier International Airport",
    "city": "Ottawa",
    "country": "Canada",
    "iata": "YOW",
    "icao": "CYOW",
    "coordinates": {
      "latitude": 45.3224983215332,
      "longitude": -75.66919708251953
    },
    "searchText": "ottawa macdonald-cartier international airport ottawa yow cyow"
  },
  {
    "id": "101",
    "name": "Prince Albert Glass Field",
    "city": "Prince Albert",
    "country": "Canada",
    "iata": "YPA",
    "icao": "CYPA",
    "coordinates": {
      "latitude": 53.214199066199996,
      "longitude": -105.672996521
    },
    "searchText": "prince albert glass field prince albert ypa cypa"
  },
  {
    "id": "102",
    "name": "Peace River Airport",
    "city": "Peace River",
    "country": "Canada",
    "iata": "YPE",
    "icao": "CYPE",
    "coordinates": {
      "latitude": 56.226898,
      "longitude": -117.446999
    },
    "searchText": "peace river airport peace river ype cype"
  },
  {
    "id": "103",
    "name": "Southport Airport",
    "city": "Portage-la-prairie",
    "country": "Canada",
    "iata": "YPG",
    "icao": "CYPG",
    "coordinates": {
      "latitude": 49.903099,
      "longitude": -98.273817
    },
    "searchText": "southport airport portage-la-prairie ypg cypg"
  },
  {
    "id": "105",
    "name": "Pickle Lake Airport",
    "city": "Pickle Lake",
    "country": "Canada",
    "iata": "YPL",
    "icao": "CYPL",
    "coordinates": {
      "latitude": 51.4463996887207,
      "longitude": -90.21420288085938
    },
    "searchText": "pickle lake airport pickle lake ypl cypl"
  },
  {
    "id": "106",
    "name": "Port Menier Airport",
    "city": "Port Menier",
    "country": "Canada",
    "iata": "YPN",
    "icao": "CYPN",
    "coordinates": {
      "latitude": 49.83639907836914,
      "longitude": -64.2885971069336
    },
    "searchText": "port menier airport port menier ypn cypn"
  },
  {
    "id": "107",
    "name": "Peterborough Airport",
    "city": "Peterborough",
    "country": "Canada",
    "iata": "YPQ",
    "icao": "CYPQ",
    "coordinates": {
      "latitude": 44.22999954223633,
      "longitude": -78.36329650878906
    },
    "searchText": "peterborough airport peterborough ypq cypq"
  },
  {
    "id": "108",
    "name": "Prince Rupert Airport",
    "city": "Prince Pupert",
    "country": "Canada",
    "iata": "YPR",
    "icao": "CYPR",
    "coordinates": {
      "latitude": 54.286098480199996,
      "longitude": -130.445007324
    },
    "searchText": "prince rupert airport prince pupert ypr cypr"
  },
  {
    "id": "109",
    "name": "Fort Chipewyan Airport",
    "city": "Fort Chipewyan",
    "country": "Canada",
    "iata": "YPY",
    "icao": "CYPY",
    "coordinates": {
      "latitude": 58.7672004699707,
      "longitude": -111.11699676513672
    },
    "searchText": "fort chipewyan airport fort chipewyan ypy cypy"
  },
  {
    "id": "110",
    "name": "Muskoka Airport",
    "city": "Muskoka",
    "country": "Canada",
    "iata": "YQA",
    "icao": "CYQA",
    "coordinates": {
      "latitude": 44.974700927734375,
      "longitude": -79.30329895019531
    },
    "searchText": "muskoka airport muskoka yqa cyqa"
  },
  {
    "id": "111",
    "name": "Quebec Jean Lesage International Airport",
    "city": "Quebec",
    "country": "Canada",
    "iata": "YQB",
    "icao": "CYQB",
    "coordinates": {
      "latitude": 46.7911,
      "longitude": -71.393303
    },
    "searchText": "quebec jean lesage international airport quebec yqb cyqb"
  },
  {
    "id": "112",
    "name": "Red Deer Regional Airport",
    "city": "Red Deer Industrial",
    "country": "Canada",
    "iata": "YQF",
    "icao": "CYQF",
    "coordinates": {
      "latitude": 52.18220138549805,
      "longitude": -113.89399719238281
    },
    "searchText": "red deer regional airport red deer industrial yqf cyqf"
  },
  {
    "id": "113",
    "name": "Windsor Airport",
    "city": "Windsor",
    "country": "Canada",
    "iata": "YQG",
    "icao": "CYQG",
    "coordinates": {
      "latitude": 42.27560043334961,
      "longitude": -82.95559692382812
    },
    "searchText": "windsor airport windsor yqg cyqg"
  },
  {
    "id": "114",
    "name": "Watson Lake Airport",
    "city": "Watson Lake",
    "country": "Canada",
    "iata": "YQH",
    "icao": "CYQH",
    "coordinates": {
      "latitude": 60.11640167236328,
      "longitude": -128.82200622558594
    },
    "searchText": "watson lake airport watson lake yqh cyqh"
  },
  {
    "id": "115",
    "name": "Kenora Airport",
    "city": "Kenora",
    "country": "Canada",
    "iata": "YQK",
    "icao": "CYQK",
    "coordinates": {
      "latitude": 49.788299560546875,
      "longitude": -94.36309814453125
    },
    "searchText": "kenora airport kenora yqk cyqk"
  },
  {
    "id": "116",
    "name": "Lethbridge County Airport",
    "city": "Lethbridge",
    "country": "Canada",
    "iata": "YQL",
    "icao": "CYQL",
    "coordinates": {
      "latitude": 49.6302986145,
      "longitude": -112.800003052
    },
    "searchText": "lethbridge county airport lethbridge yql cyql"
  },
  {
    "id": "117",
    "name": "Greater Moncton International Airport",
    "city": "Moncton",
    "country": "Canada",
    "iata": "YQM",
    "icao": "CYQM",
    "coordinates": {
      "latitude": 46.11220169067383,
      "longitude": -64.67859649658203
    },
    "searchText": "greater moncton international airport moncton yqm cyqm"
  },
  {
    "id": "119",
    "name": "Comox Airport",
    "city": "Comox",
    "country": "Canada",
    "iata": "YQQ",
    "icao": "CYQQ",
    "coordinates": {
      "latitude": 49.71080017089844,
      "longitude": -124.88700103759766
    },
    "searchText": "comox airport comox yqq cyqq"
  },
  {
    "id": "120",
    "name": "Regina International Airport",
    "city": "Regina",
    "country": "Canada",
    "iata": "YQR",
    "icao": "CYQR",
    "coordinates": {
      "latitude": 50.43190002441406,
      "longitude": -104.66600036621094
    },
    "searchText": "regina international airport regina yqr cyqr"
  },
  {
    "id": "121",
    "name": "Thunder Bay Airport",
    "city": "Thunder Bay",
    "country": "Canada",
    "iata": "YQT",
    "icao": "CYQT",
    "coordinates": {
      "latitude": 48.37189865112305,
      "longitude": -89.32389831542969
    },
    "searchText": "thunder bay airport thunder bay yqt cyqt"
  },
  {
    "id": "122",
    "name": "Grande Prairie Airport",
    "city": "Grande Prairie",
    "country": "Canada",
    "iata": "YQU",
    "icao": "CYQU",
    "coordinates": {
      "latitude": 55.1796989441,
      "longitude": -118.885002136
    },
    "searchText": "grande prairie airport grande prairie yqu cyqu"
  },
  {
    "id": "123",
    "name": "Yorkton Municipal Airport",
    "city": "Yorkton",
    "country": "Canada",
    "iata": "YQV",
    "icao": "CYQV",
    "coordinates": {
      "latitude": 51.26470184326172,
      "longitude": -102.46199798583984
    },
    "searchText": "yorkton municipal airport yorkton yqv cyqv"
  },
  {
    "id": "124",
    "name": "North Battleford Airport",
    "city": "North Battleford",
    "country": "Canada",
    "iata": "YQW",
    "icao": "CYQW",
    "coordinates": {
      "latitude": 52.76919937133789,
      "longitude": -108.24400329589844
    },
    "searchText": "north battleford airport north battleford yqw cyqw"
  },
  {
    "id": "125",
    "name": "Gander International Airport",
    "city": "Gander",
    "country": "Canada",
    "iata": "YQX",
    "icao": "CYQX",
    "coordinates": {
      "latitude": 48.9369010925293,
      "longitude": -54.56809997558594
    },
    "searchText": "gander international airport gander yqx cyqx"
  },
  {
    "id": "126",
    "name": "Sydney / J.A. Douglas McCurdy Airport",
    "city": "Sydney",
    "country": "Canada",
    "iata": "YQY",
    "icao": "CYQY",
    "coordinates": {
      "latitude": 46.1614,
      "longitude": -60.047798
    },
    "searchText": "sydney / j.a. douglas mccurdy airport sydney yqy cyqy"
  },
  {
    "id": "127",
    "name": "Quesnel Airport",
    "city": "Quesnel",
    "country": "Canada",
    "iata": "YQZ",
    "icao": "CYQZ",
    "coordinates": {
      "latitude": 53.026100158691406,
      "longitude": -122.51000213623047
    },
    "searchText": "quesnel airport quesnel yqz cyqz"
  },
  {
    "id": "128",
    "name": "Resolute Bay Airport",
    "city": "Resolute",
    "country": "Canada",
    "iata": "YRB",
    "icao": "CYRB",
    "coordinates": {
      "latitude": 74.7169036865,
      "longitude": -94.9693984985
    },
    "searchText": "resolute bay airport resolute yrb cyrb"
  },
  {
    "id": "129",
    "name": "Rivière-du-Loup Airport",
    "city": "Riviere Du Loup",
    "country": "Canada",
    "iata": "YRI",
    "icao": "CYRI",
    "coordinates": {
      "latitude": 47.764400482177734,
      "longitude": -69.58470153808594
    },
    "searchText": "rivière-du-loup airport riviere du loup yri cyri"
  },
  {
    "id": "130",
    "name": "Roberval Airport",
    "city": "Roberval",
    "country": "Canada",
    "iata": "YRJ",
    "icao": "CYRJ",
    "coordinates": {
      "latitude": 48.52000045776367,
      "longitude": -72.2656021118164
    },
    "searchText": "roberval airport roberval yrj cyrj"
  },
  {
    "id": "131",
    "name": "Rocky Mountain House Airport",
    "city": "Rocky Mountain House",
    "country": "Canada",
    "iata": "YRM",
    "icao": "CYRM",
    "coordinates": {
      "latitude": 52.4296989441,
      "longitude": -114.903999329
    },
    "searchText": "rocky mountain house airport rocky mountain house yrm cyrm"
  },
  {
    "id": "132",
    "name": "Rankin Inlet Airport",
    "city": "Rankin Inlet",
    "country": "Canada",
    "iata": "YRT",
    "icao": "CYRT",
    "coordinates": {
      "latitude": 62.8114013672,
      "longitude": -92.1157989502
    },
    "searchText": "rankin inlet airport rankin inlet yrt cyrt"
  },
  {
    "id": "133",
    "name": "Sudbury Airport",
    "city": "Sudbury",
    "country": "Canada",
    "iata": "YSB",
    "icao": "CYSB",
    "coordinates": {
      "latitude": 46.625,
      "longitude": -80.79889678955078
    },
    "searchText": "sudbury airport sudbury ysb cysb"
  },
  {
    "id": "134",
    "name": "Sherbrooke Airport",
    "city": "Sherbrooke",
    "country": "Canada",
    "iata": "YSC",
    "icao": "CYSC",
    "coordinates": {
      "latitude": 45.4385986328125,
      "longitude": -71.69139862060547
    },
    "searchText": "sherbrooke airport sherbrooke ysc cysc"
  },
  {
    "id": "135",
    "name": "Saint John Airport",
    "city": "St. John",
    "country": "Canada",
    "iata": "YSJ",
    "icao": "CYSJ",
    "coordinates": {
      "latitude": 45.31610107421875,
      "longitude": -65.89029693603516
    },
    "searchText": "saint john airport st. john ysj cysj"
  },
  {
    "id": "136",
    "name": "Fort Smith Airport",
    "city": "Fort Smith",
    "country": "Canada",
    "iata": "YSM",
    "icao": "CYSM",
    "coordinates": {
      "latitude": 60.020301818847656,
      "longitude": -111.96199798583984
    },
    "searchText": "fort smith airport fort smith ysm cysm"
  },
  {
    "id": "137",
    "name": "Nanisivik Airport",
    "city": "Nanisivik",
    "country": "Canada",
    "iata": "YSR",
    "icao": "CYSR",
    "coordinates": {
      "latitude": 72.982201,
      "longitude": -84.613602
    },
    "searchText": "nanisivik airport nanisivik ysr cysr"
  },
  {
    "id": "138",
    "name": "Summerside Airport",
    "city": "Summerside",
    "country": "Canada",
    "iata": "YSU",
    "icao": "CYSU",
    "coordinates": {
      "latitude": 46.44060134887695,
      "longitude": -63.83359909057617
    },
    "searchText": "summerside airport summerside ysu cysu"
  },
  {
    "id": "139",
    "name": "Sachs Harbour (David Nasogaluak Jr. Saaryuaq) Airport",
    "city": "Sachs Harbour",
    "country": "Canada",
    "iata": "YSY",
    "icao": "CYSY",
    "coordinates": {
      "latitude": 71.9938964844,
      "longitude": -125.242996216
    },
    "searchText": "sachs harbour (david nasogaluak jr. saaryuaq) airport sachs harbour ysy cysy"
  },
  {
    "id": "140",
    "name": "Cape Dorset Airport",
    "city": "Cape Dorset",
    "country": "Canada",
    "iata": "YTE",
    "icao": "CYTE",
    "coordinates": {
      "latitude": 64.2300033569,
      "longitude": -76.5267028809
    },
    "searchText": "cape dorset airport cape dorset yte cyte"
  },
  {
    "id": "141",
    "name": "Thompson Airport",
    "city": "Thompson",
    "country": "Canada",
    "iata": "YTH",
    "icao": "CYTH",
    "coordinates": {
      "latitude": 55.80110168457031,
      "longitude": -97.86419677734375
    },
    "searchText": "thompson airport thompson yth cyth"
  },
  {
    "id": "142",
    "name": "CFB Trenton",
    "city": "Trenton",
    "country": "Canada",
    "iata": "YTR",
    "icao": "CYTR",
    "coordinates": {
      "latitude": 44.118900299072266,
      "longitude": -77.5280990600586
    },
    "searchText": "cfb trenton trenton ytr cytr"
  },
  {
    "id": "143",
    "name": "Timmins/Victor M. Power",
    "city": "Timmins",
    "country": "Canada",
    "iata": "YTS",
    "icao": "CYTS",
    "coordinates": {
      "latitude": 48.569698333699996,
      "longitude": -81.376701355
    },
    "searchText": "timmins/victor m. power timmins yts cyts"
  },
  {
    "id": "144",
    "name": "Billy Bishop Toronto City Centre Airport",
    "city": "Toronto",
    "country": "Canada",
    "iata": "YTZ",
    "icao": "CYTZ",
    "coordinates": {
      "latitude": 43.627499,
      "longitude": -79.396202
    },
    "searchText": "billy bishop toronto city centre airport toronto ytz cytz"
  },
  {
    "id": "145",
    "name": "Tuktoyaktuk Airport",
    "city": "Tuktoyaktuk",
    "country": "Canada",
    "iata": "YUB",
    "icao": "CYUB",
    "coordinates": {
      "latitude": 69.43329620361328,
      "longitude": -133.0260009765625
    },
    "searchText": "tuktoyaktuk airport tuktoyaktuk yub cyub"
  },
  {
    "id": "146",
    "name": "Montreal / Pierre Elliott Trudeau International Airport",
    "city": "Montreal",
    "country": "Canada",
    "iata": "YUL",
    "icao": "CYUL",
    "coordinates": {
      "latitude": 45.4706001282,
      "longitude": -73.7407989502
    },
    "searchText": "montreal / pierre elliott trudeau international airport montreal yul cyul"
  },
  {
    "id": "147",
    "name": "Repulse Bay Airport",
    "city": "Repulse Bay",
    "country": "Canada",
    "iata": "YUT",
    "icao": "CYUT",
    "coordinates": {
      "latitude": 66.5214004517,
      "longitude": -86.22470092770001
    },
    "searchText": "repulse bay airport repulse bay yut cyut"
  },
  {
    "id": "148",
    "name": "Hall Beach Airport",
    "city": "Hall Beach",
    "country": "Canada",
    "iata": "YUX",
    "icao": "CYUX",
    "coordinates": {
      "latitude": 68.77610015869999,
      "longitude": -81.2425
    },
    "searchText": "hall beach airport hall beach yux cyux"
  },
  {
    "id": "149",
    "name": "Rouyn Noranda Airport",
    "city": "Rouyn",
    "country": "Canada",
    "iata": "YUY",
    "icao": "CYUY",
    "coordinates": {
      "latitude": 48.20610046386719,
      "longitude": -78.83560180664062
    },
    "searchText": "rouyn noranda airport rouyn yuy cyuy"
  },
  {
    "id": "150",
    "name": "La Ronge Airport",
    "city": "La Ronge",
    "country": "Canada",
    "iata": "YVC",
    "icao": "CYVC",
    "coordinates": {
      "latitude": 55.151401519800004,
      "longitude": -105.262001038
    },
    "searchText": "la ronge airport la ronge yvc cyvc"
  },
  {
    "id": "151",
    "name": "Vermilion Airport",
    "city": "Vermillion",
    "country": "Canada",
    "iata": "YVG",
    "icao": "CYVG",
    "coordinates": {
      "latitude": 53.355800628699996,
      "longitude": -110.823997498
    },
    "searchText": "vermilion airport vermillion yvg cyvg"
  },
  {
    "id": "152",
    "name": "Qikiqtarjuaq Airport",
    "city": "Broughton Island",
    "country": "Canada",
    "iata": "YVM",
    "icao": "CYVM",
    "coordinates": {
      "latitude": 67.5457992554,
      "longitude": -64.03140258789999
    },
    "searchText": "qikiqtarjuaq airport broughton island yvm cyvm"
  },
  {
    "id": "153",
    "name": "Val-d'Or Airport",
    "city": "Val D'or",
    "country": "Canada",
    "iata": "YVO",
    "icao": "CYVO",
    "coordinates": {
      "latitude": 48.0532989502,
      "longitude": -77.7827987671
    },
    "searchText": "val-d'or airport val d'or yvo cyvo"
  },
  {
    "id": "154",
    "name": "Kuujjuaq Airport",
    "city": "Quujjuaq",
    "country": "Canada",
    "iata": "YVP",
    "icao": "CYVP",
    "coordinates": {
      "latitude": 58.096099853515625,
      "longitude": -68.4269027709961
    },
    "searchText": "kuujjuaq airport quujjuaq yvp cyvp"
  },
  {
    "id": "155",
    "name": "Norman Wells Airport",
    "city": "Norman Wells",
    "country": "Canada",
    "iata": "YVQ",
    "icao": "CYVQ",
    "coordinates": {
      "latitude": 65.28160095214844,
      "longitude": -126.7979965209961
    },
    "searchText": "norman wells airport norman wells yvq cyvq"
  },
  {
    "id": "156",
    "name": "Vancouver International Airport",
    "city": "Vancouver",
    "country": "Canada",
    "iata": "YVR",
    "icao": "CYVR",
    "coordinates": {
      "latitude": 49.193901062,
      "longitude": -123.183998108
    },
    "searchText": "vancouver international airport vancouver yvr cyvr"
  },
  {
    "id": "157",
    "name": "Buffalo Narrows Airport",
    "city": "Buffalo Narrows",
    "country": "Canada",
    "iata": "YVT",
    "icao": "CYVT",
    "coordinates": {
      "latitude": 55.8418998718,
      "longitude": -108.417999268
    },
    "searchText": "buffalo narrows airport buffalo narrows yvt cyvt"
  },
  {
    "id": "158",
    "name": "Wiarton Airport",
    "city": "Wiarton",
    "country": "Canada",
    "iata": "YVV",
    "icao": "CYVV",
    "coordinates": {
      "latitude": 44.7458,
      "longitude": -81.107201
    },
    "searchText": "wiarton airport wiarton yvv cyvv"
  },
  {
    "id": "159",
    "name": "Petawawa Airport",
    "city": "Petawawa",
    "country": "Canada",
    "iata": "YWA",
    "icao": "CYWA",
    "coordinates": {
      "latitude": 45.95220184326172,
      "longitude": -77.31919860839844
    },
    "searchText": "petawawa airport petawawa ywa cywa"
  },
  {
    "id": "160",
    "name": "Winnipeg / James Armstrong Richardson International Airport",
    "city": "Winnipeg",
    "country": "Canada",
    "iata": "YWG",
    "icao": "CYWG",
    "coordinates": {
      "latitude": 49.909999847399995,
      "longitude": -97.2398986816
    },
    "searchText": "winnipeg / james armstrong richardson international airport winnipeg ywg cywg"
  },
  {
    "id": "161",
    "name": "Wabush Airport",
    "city": "Wabush",
    "country": "Canada",
    "iata": "YWK",
    "icao": "CYWK",
    "coordinates": {
      "latitude": 52.92190170288086,
      "longitude": -66.8644027709961
    },
    "searchText": "wabush airport wabush ywk cywk"
  },
  {
    "id": "162",
    "name": "Williams Lake Airport",
    "city": "Williams Lake",
    "country": "Canada",
    "iata": "YWL",
    "icao": "CYWL",
    "coordinates": {
      "latitude": 52.1831016541,
      "longitude": -122.054000854
    },
    "searchText": "williams lake airport williams lake ywl cywl"
  },
  {
    "id": "163",
    "name": "Wrigley Airport",
    "city": "Wrigley",
    "country": "Canada",
    "iata": "YWY",
    "icao": "CYWY",
    "coordinates": {
      "latitude": 63.20940017700195,
      "longitude": -123.43699645996094
    },
    "searchText": "wrigley airport wrigley ywy cywy"
  },
  {
    "id": "164",
    "name": "Cranbrook/Canadian Rockies International Airport",
    "city": "Cranbrook",
    "country": "Canada",
    "iata": "YXC",
    "icao": "CYXC",
    "coordinates": {
      "latitude": 49.610801696777,
      "longitude": -115.78199768066
    },
    "searchText": "cranbrook/canadian rockies international airport cranbrook yxc cyxc"
  },
  {
    "id": "165",
    "name": "Edmonton City Centre (Blatchford Field) Airport",
    "city": "Edmonton",
    "country": "Canada",
    "iata": "YXD",
    "icao": "CYXD",
    "coordinates": {
      "latitude": 53.5724983215,
      "longitude": -113.521003723
    },
    "searchText": "edmonton city centre (blatchford field) airport edmonton yxd cyxd"
  },
  {
    "id": "166",
    "name": "Saskatoon John G. Diefenbaker International Airport",
    "city": "Saskatoon",
    "country": "Canada",
    "iata": "YXE",
    "icao": "CYXE",
    "coordinates": {
      "latitude": 52.170799255371094,
      "longitude": -106.69999694824219
    },
    "searchText": "saskatoon john g. diefenbaker international airport saskatoon yxe cyxe"
  },
  {
    "id": "167",
    "name": "Medicine Hat Airport",
    "city": "Medicine Hat",
    "country": "Canada",
    "iata": "YXH",
    "icao": "CYXH",
    "coordinates": {
      "latitude": 50.01890182495117,
      "longitude": -110.72100067138672
    },
    "searchText": "medicine hat airport medicine hat yxh cyxh"
  },
  {
    "id": "168",
    "name": "Fort St John Airport",
    "city": "Fort Saint John",
    "country": "Canada",
    "iata": "YXJ",
    "icao": "CYXJ",
    "coordinates": {
      "latitude": 56.23809814453125,
      "longitude": -120.73999786376953
    },
    "searchText": "fort st john airport fort saint john yxj cyxj"
  },
  {
    "id": "169",
    "name": "Sioux Lookout Airport",
    "city": "Sioux Lookout",
    "country": "Canada",
    "iata": "YXL",
    "icao": "CYXL",
    "coordinates": {
      "latitude": 50.11389923095703,
      "longitude": -91.9052963256836
    },
    "searchText": "sioux lookout airport sioux lookout yxl cyxl"
  },
  {
    "id": "170",
    "name": "Pangnirtung Airport",
    "city": "Pangnirtung",
    "country": "Canada",
    "iata": "YXP",
    "icao": "CYXP",
    "coordinates": {
      "latitude": 66.1449966431,
      "longitude": -65.71360015869999
    },
    "searchText": "pangnirtung airport pangnirtung yxp cyxp"
  },
  {
    "id": "171",
    "name": "Earlton (Timiskaming Regional) Airport",
    "city": "Earlton",
    "country": "Canada",
    "iata": "YXR",
    "icao": "CYXR",
    "coordinates": {
      "latitude": 47.697400654599996,
      "longitude": -79.8473453522
    },
    "searchText": "earlton (timiskaming regional) airport earlton yxr cyxr"
  },
  {
    "id": "172",
    "name": "Prince George Airport",
    "city": "Prince George",
    "country": "Canada",
    "iata": "YXS",
    "icao": "CYXS",
    "coordinates": {
      "latitude": 53.8894004822,
      "longitude": -122.679000854
    },
    "searchText": "prince george airport prince george yxs cyxs"
  },
  {
    "id": "173",
    "name": "Northwest Regional Airport Terrace-Kitimat",
    "city": "Terrace",
    "country": "Canada",
    "iata": "YXT",
    "icao": "CYXT",
    "coordinates": {
      "latitude": 54.468498,
      "longitude": -128.576009
    },
    "searchText": "northwest regional airport terrace-kitimat terrace yxt cyxt"
  },
  {
    "id": "174",
    "name": "London Airport",
    "city": "London",
    "country": "Canada",
    "iata": "YXU",
    "icao": "CYXU",
    "coordinates": {
      "latitude": 43.035599,
      "longitude": -81.1539
    },
    "searchText": "london airport london yxu cyxu"
  },
  {
    "id": "175",
    "name": "Abbotsford Airport",
    "city": "Abbotsford",
    "country": "Canada",
    "iata": "YXX",
    "icao": "CYXX",
    "coordinates": {
      "latitude": 49.025299072265625,
      "longitude": -122.36100006103516
    },
    "searchText": "abbotsford airport abbotsford yxx cyxx"
  },
  {
    "id": "176",
    "name": "Whitehorse / Erik Nielsen International Airport",
    "city": "Whitehorse",
    "country": "Canada",
    "iata": "YXY",
    "icao": "CYXY",
    "coordinates": {
      "latitude": 60.7095985413,
      "longitude": -135.067001343
    },
    "searchText": "whitehorse / erik nielsen international airport whitehorse yxy cyxy"
  },
  {
    "id": "177",
    "name": "North Bay Jack Garland Airport",
    "city": "North Bay",
    "country": "Canada",
    "iata": "YYB",
    "icao": "CYYB",
    "coordinates": {
      "latitude": 46.363602,
      "longitude": -79.422798
    },
    "searchText": "north bay jack garland airport north bay yyb cyyb"
  },
  {
    "id": "178",
    "name": "Calgary International Airport",
    "city": "Calgary",
    "country": "Canada",
    "iata": "YYC",
    "icao": "CYYC",
    "coordinates": {
      "latitude": 51.113899231,
      "longitude": -114.019996643
    },
    "searchText": "calgary international airport calgary yyc cyyc"
  },
  {
    "id": "179",
    "name": "Smithers Airport",
    "city": "Smithers",
    "country": "Canada",
    "iata": "YYD",
    "icao": "CYYD",
    "coordinates": {
      "latitude": 54.82469940185547,
      "longitude": -127.18299865722656
    },
    "searchText": "smithers airport smithers yyd cyyd"
  },
  {
    "id": "180",
    "name": "Fort Nelson Airport",
    "city": "Fort Nelson",
    "country": "Canada",
    "iata": "YYE",
    "icao": "CYYE",
    "coordinates": {
      "latitude": 58.8363990784,
      "longitude": -122.597000122
    },
    "searchText": "fort nelson airport fort nelson yye cyye"
  },
  {
    "id": "181",
    "name": "Penticton Airport",
    "city": "Penticton",
    "country": "Canada",
    "iata": "YYF",
    "icao": "CYYF",
    "coordinates": {
      "latitude": 49.46310043334961,
      "longitude": -119.60199737548828
    },
    "searchText": "penticton airport penticton yyf cyyf"
  },
  {
    "id": "182",
    "name": "Charlottetown Airport",
    "city": "Charlottetown",
    "country": "Canada",
    "iata": "YYG",
    "icao": "CYYG",
    "coordinates": {
      "latitude": 46.290000915527344,
      "longitude": -63.12110137939453
    },
    "searchText": "charlottetown airport charlottetown yyg cyyg"
  },
  {
    "id": "183",
    "name": "Taloyoak Airport",
    "city": "Spence Bay",
    "country": "Canada",
    "iata": "YYH",
    "icao": "CYYH",
    "coordinates": {
      "latitude": 69.5466995239,
      "longitude": -93.5766983032
    },
    "searchText": "taloyoak airport spence bay yyh cyyh"
  },
  {
    "id": "184",
    "name": "Victoria International Airport",
    "city": "Victoria",
    "country": "Canada",
    "iata": "YYJ",
    "icao": "CYYJ",
    "coordinates": {
      "latitude": 48.646900177,
      "longitude": -123.426002502
    },
    "searchText": "victoria international airport victoria yyj cyyj"
  },
  {
    "id": "185",
    "name": "Lynn Lake Airport",
    "city": "Lynn Lake",
    "country": "Canada",
    "iata": "YYL",
    "icao": "CYYL",
    "coordinates": {
      "latitude": 56.86389923095703,
      "longitude": -101.07599639892578
    },
    "searchText": "lynn lake airport lynn lake yyl cyyl"
  },
  {
    "id": "186",
    "name": "Swift Current Airport",
    "city": "Swift Current",
    "country": "Canada",
    "iata": "YYN",
    "icao": "CYYN",
    "coordinates": {
      "latitude": 50.291900634799994,
      "longitude": -107.691001892
    },
    "searchText": "swift current airport swift current yyn cyyn"
  },
  {
    "id": "187",
    "name": "Churchill Airport",
    "city": "Churchill",
    "country": "Canada",
    "iata": "YYQ",
    "icao": "CYYQ",
    "coordinates": {
      "latitude": 58.739200592041016,
      "longitude": -94.06500244140625
    },
    "searchText": "churchill airport churchill yyq cyyq"
  },
  {
    "id": "188",
    "name": "Goose Bay Airport",
    "city": "Goose Bay",
    "country": "Canada",
    "iata": "YYR",
    "icao": "CYYR",
    "coordinates": {
      "latitude": 53.3191986084,
      "longitude": -60.4258003235
    },
    "searchText": "goose bay airport goose bay yyr cyyr"
  },
  {
    "id": "189",
    "name": "St. John's International Airport",
    "city": "St. John's",
    "country": "Canada",
    "iata": "YYT",
    "icao": "CYYT",
    "coordinates": {
      "latitude": 47.618598938,
      "longitude": -52.7518997192
    },
    "searchText": "st. john's international airport st. john's yyt cyyt"
  },
  {
    "id": "190",
    "name": "Kapuskasing Airport",
    "city": "Kapuskasing",
    "country": "Canada",
    "iata": "YYU",
    "icao": "CYYU",
    "coordinates": {
      "latitude": 49.41389846801758,
      "longitude": -82.46749877929688
    },
    "searchText": "kapuskasing airport kapuskasing yyu cyyu"
  },
  {
    "id": "191",
    "name": "Armstrong Airport",
    "city": "Armstrong",
    "country": "Canada",
    "iata": "YYW",
    "icao": "CYYW",
    "coordinates": {
      "latitude": 50.29029846191406,
      "longitude": -88.90969848632812
    },
    "searchText": "armstrong airport armstrong yyw cyyw"
  },
  {
    "id": "192",
    "name": "Mont Joli Airport",
    "city": "Mont Joli",
    "country": "Canada",
    "iata": "YYY",
    "icao": "CYYY",
    "coordinates": {
      "latitude": 48.60860061645508,
      "longitude": -68.20809936523438
    },
    "searchText": "mont joli airport mont joli yyy cyyy"
  },
  {
    "id": "193",
    "name": "Lester B. Pearson International Airport",
    "city": "Toronto",
    "country": "Canada",
    "iata": "YYZ",
    "icao": "CYYZ",
    "coordinates": {
      "latitude": 43.6772003174,
      "longitude": -79.63059997559999
    },
    "searchText": "lester b. pearson international airport toronto yyz cyyz"
  },
  {
    "id": "194",
    "name": "Downsview Airport",
    "city": "Toronto",
    "country": "Canada",
    "iata": "YZD",
    "icao": "CYZD",
    "coordinates": {
      "latitude": 43.74250030517578,
      "longitude": -79.4655990600586
    },
    "searchText": "downsview airport toronto yzd cyzd"
  },
  {
    "id": "195",
    "name": "Gore Bay Manitoulin Airport",
    "city": "Gore Bay",
    "country": "Canada",
    "iata": "YZE",
    "icao": "CYZE",
    "coordinates": {
      "latitude": 45.88529968261719,
      "longitude": -82.56780242919922
    },
    "searchText": "gore bay manitoulin airport gore bay yze cyze"
  },
  {
    "id": "196",
    "name": "Yellowknife Airport",
    "city": "Yellowknife",
    "country": "Canada",
    "iata": "YZF",
    "icao": "CYZF",
    "coordinates": {
      "latitude": 62.462799072265625,
      "longitude": -114.44000244140625
    },
    "searchText": "yellowknife airport yellowknife yzf cyzf"
  },
  {
    "id": "197",
    "name": "Slave Lake Airport",
    "city": "Slave Lake",
    "country": "Canada",
    "iata": "YZH",
    "icao": "CYZH",
    "coordinates": {
      "latitude": 55.2930984497,
      "longitude": -114.777000427
    },
    "searchText": "slave lake airport slave lake yzh cyzh"
  },
  {
    "id": "198",
    "name": "Sandspit Airport",
    "city": "Sandspit",
    "country": "Canada",
    "iata": "YZP",
    "icao": "CYZP",
    "coordinates": {
      "latitude": 53.25429916379999,
      "longitude": -131.813995361
    },
    "searchText": "sandspit airport sandspit yzp cyzp"
  },
  {
    "id": "199",
    "name": "Chris Hadfield Airport",
    "city": "Sarnia",
    "country": "Canada",
    "iata": "YZR",
    "icao": "CYZR",
    "coordinates": {
      "latitude": 42.9994010925293,
      "longitude": -82.30889892578125
    },
    "searchText": "chris hadfield airport sarnia yzr cyzr"
  },
  {
    "id": "200",
    "name": "Port Hardy Airport",
    "city": "Port Hardy",
    "country": "Canada",
    "iata": "YZT",
    "icao": "CYZT",
    "coordinates": {
      "latitude": 50.680599212646484,
      "longitude": -127.36699676513672
    },
    "searchText": "port hardy airport port hardy yzt cyzt"
  },
  {
    "id": "201",
    "name": "Whitecourt Airport",
    "city": "Whitecourt",
    "country": "Canada",
    "iata": "YZU",
    "icao": "CYZU",
    "coordinates": {
      "latitude": 54.14390182495117,
      "longitude": -115.78700256347656
    },
    "searchText": "whitecourt airport whitecourt yzu cyzu"
  },
  {
    "id": "202",
    "name": "Sept-Îles Airport",
    "city": "Sept-iles",
    "country": "Canada",
    "iata": "YZV",
    "icao": "CYZV",
    "coordinates": {
      "latitude": 50.22330093383789,
      "longitude": -66.2656021118164
    },
    "searchText": "sept-îles airport sept-iles yzv cyzv"
  },
  {
    "id": "203",
    "name": "Teslin Airport",
    "city": "Teslin",
    "country": "Canada",
    "iata": "YZW",
    "icao": "CYZW",
    "coordinates": {
      "latitude": 60.17279815673828,
      "longitude": -132.7429962158203
    },
    "searchText": "teslin airport teslin yzw cyzw"
  },
  {
    "id": "204",
    "name": "CFB Greenwood",
    "city": "Greenwood",
    "country": "Canada",
    "iata": "YZX",
    "icao": "CYZX",
    "coordinates": {
      "latitude": 44.98440170288086,
      "longitude": -64.91690063476562
    },
    "searchText": "cfb greenwood greenwood yzx cyzx"
  },
  {
    "id": "205",
    "name": "Faro Airport",
    "city": "Faro",
    "country": "Canada",
    "iata": "ZFA",
    "icao": "CZFA",
    "coordinates": {
      "latitude": 62.20750045776367,
      "longitude": -133.37600708007812
    },
    "searchText": "faro airport faro zfa czfa"
  },
  {
    "id": "206",
    "name": "Fort Mcpherson Airport",
    "city": "Fort Mcpherson",
    "country": "Canada",
    "iata": "ZFM",
    "icao": "CZFM",
    "coordinates": {
      "latitude": 67.40750122070312,
      "longitude": -134.86099243164062
    },
    "searchText": "fort mcpherson airport fort mcpherson zfm czfm"
  },
  {
    "id": "207",
    "name": "Blida Airport",
    "city": "Blida",
    "country": "Algeria",
    "iata": "QLD",
    "icao": "DAAB",
    "coordinates": {
      "latitude": 36.50360107421875,
      "longitude": 2.8141698837280273
    },
    "searchText": "blida airport blida qld daab"
  },
  {
    "id": "208",
    "name": "Bou Saada Airport",
    "city": "Bou Saada",
    "country": "Algeria",
    "iata": "BUJ",
    "icao": "DAAD",
    "coordinates": {
      "latitude": 35.33250045776367,
      "longitude": 4.206389904022217
    },
    "searchText": "bou saada airport bou saada buj daad"
  },
  {
    "id": "209",
    "name": "Soummam Airport",
    "city": "Bejaja",
    "country": "Algeria",
    "iata": "BJA",
    "icao": "DAAE",
    "coordinates": {
      "latitude": 36.7120018005,
      "longitude": 5.0699200630200005
    },
    "searchText": "soummam airport bejaja bja daae"
  },
  {
    "id": "210",
    "name": "Houari Boumediene Airport",
    "city": "Algier",
    "country": "Algeria",
    "iata": "ALG",
    "icao": "DAAG",
    "coordinates": {
      "latitude": 36.691001892089844,
      "longitude": 3.215409994125366
    },
    "searchText": "houari boumediene airport algier alg daag"
  },
  {
    "id": "211",
    "name": "Djanet Inedbirene Airport",
    "city": "Djanet",
    "country": "Algeria",
    "iata": "DJG",
    "icao": "DAAJ",
    "coordinates": {
      "latitude": 24.292801,
      "longitude": 9.45244
    },
    "searchText": "djanet inedbirene airport djanet djg daaj"
  },
  {
    "id": "214",
    "name": "Illizi Takhamalt Airport",
    "city": "Illizi",
    "country": "Algeria",
    "iata": "VVZ",
    "icao": "DAAP",
    "coordinates": {
      "latitude": 26.7234992981,
      "longitude": 8.62265014648
    },
    "searchText": "illizi takhamalt airport illizi vvz daap"
  },
  {
    "id": "216",
    "name": "Aguenar – Hadj Bey Akhamok Airport",
    "city": "Tamanrasset",
    "country": "Algeria",
    "iata": "TMR",
    "icao": "DAAT",
    "coordinates": {
      "latitude": 22.8115005493,
      "longitude": 5.45107984543
    },
    "searchText": "aguenar – hadj bey akhamok airport tamanrasset tmr daat"
  },
  {
    "id": "217",
    "name": "Jijel Ferhat Abbas Airport",
    "city": "Jijel",
    "country": "Algeria",
    "iata": "GJL",
    "icao": "DAAV",
    "coordinates": {
      "latitude": 36.7951011658,
      "longitude": 5.87361001968
    },
    "searchText": "jijel ferhat abbas airport jijel gjl daav"
  },
  {
    "id": "218",
    "name": "Mecheria Airport",
    "city": "Mecheria",
    "country": "Algeria",
    "iata": "MZW",
    "icao": "DAAY",
    "coordinates": {
      "latitude": 33.535900116,
      "longitude": -0.242353007197
    },
    "searchText": "mecheria airport mecheria mzw daay"
  },
  {
    "id": "220",
    "name": "Rabah Bitat Airport",
    "city": "Annaba",
    "country": "Algeria",
    "iata": "AAE",
    "icao": "DABB",
    "coordinates": {
      "latitude": 36.822201,
      "longitude": 7.809174
    },
    "searchText": "rabah bitat airport annaba aae dabb"
  },
  {
    "id": "221",
    "name": "Mohamed Boudiaf International Airport",
    "city": "Constantine",
    "country": "Algeria",
    "iata": "CZL",
    "icao": "DABC",
    "coordinates": {
      "latitude": 36.2760009765625,
      "longitude": 6.620389938354492
    },
    "searchText": "mohamed boudiaf international airport constantine czl dabc"
  },
  {
    "id": "222",
    "name": "Cheikh Larbi Tébessi Airport",
    "city": "Tebessa",
    "country": "Algeria",
    "iata": "TEE",
    "icao": "DABS",
    "coordinates": {
      "latitude": 35.4315986633,
      "longitude": 8.12071990967
    },
    "searchText": "cheikh larbi tébessi airport tebessa tee dabs"
  },
  {
    "id": "224",
    "name": "Hassi R'Mel Airport",
    "city": "Tilrempt",
    "country": "Algeria",
    "iata": "HRM",
    "icao": "DAFH",
    "coordinates": {
      "latitude": 32.93040084838867,
      "longitude": 3.311539888381958
    },
    "searchText": "hassi r'mel airport tilrempt hrm dafh"
  },
  {
    "id": "225",
    "name": "Bou Chekif Airport",
    "city": "Tiaret",
    "country": "Algeria",
    "iata": "TID",
    "icao": "DAOB",
    "coordinates": {
      "latitude": 35.3410987854,
      "longitude": 1.46315002441
    },
    "searchText": "bou chekif airport tiaret tid daob"
  },
  {
    "id": "227",
    "name": "Tindouf Airport",
    "city": "Tindouf",
    "country": "Algeria",
    "iata": "TIN",
    "icao": "DAOF",
    "coordinates": {
      "latitude": 27.7003993988,
      "longitude": -8.167099952700001
    },
    "searchText": "tindouf airport tindouf tin daof"
  },
  {
    "id": "228",
    "name": "Ech Cheliff Airport",
    "city": "Ech-cheliff",
    "country": "Algeria",
    "iata": "CFK",
    "icao": "DAOI",
    "coordinates": {
      "latitude": 36.2126998901,
      "longitude": 1.33176994324
    },
    "searchText": "ech cheliff airport ech-cheliff cfk daoi"
  },
  {
    "id": "229",
    "name": "Tafaraoui Airport",
    "city": "Oran",
    "country": "Algeria",
    "iata": "TAF",
    "icao": "DAOL",
    "coordinates": {
      "latitude": 35.54240036010742,
      "longitude": -0.5322780013084412
    },
    "searchText": "tafaraoui airport oran taf daol"
  },
  {
    "id": "230",
    "name": "Zenata – Messali El Hadj Airport",
    "city": "Tlemcen",
    "country": "Algeria",
    "iata": "TLM",
    "icao": "DAON",
    "coordinates": {
      "latitude": 35.0167007446,
      "longitude": -1.45000004768
    },
    "searchText": "zenata – messali el hadj airport tlemcen tlm daon"
  },
  {
    "id": "231",
    "name": "Es Senia Airport",
    "city": "Oran",
    "country": "Algeria",
    "iata": "ORN",
    "icao": "DAOO",
    "coordinates": {
      "latitude": 35.6239013672,
      "longitude": -0.6211829781529999
    },
    "searchText": "es senia airport oran orn daoo"
  },
  {
    "id": "232",
    "name": "Sidi Bel Abbes Airport",
    "city": "Sidi Bel Abbes",
    "country": "Algeria",
    "iata": "BFW",
    "icao": "DAOS",
    "coordinates": {
      "latitude": 35.1717987061,
      "longitude": -0.593275010586
    },
    "searchText": "sidi bel abbes airport sidi bel abbes bfw daos"
  },
  {
    "id": "233",
    "name": "Ghriss Airport",
    "city": "Ghriss",
    "country": "Algeria",
    "iata": "MUW",
    "icao": "DAOV",
    "coordinates": {
      "latitude": 35.207698822021484,
      "longitude": 0.14714199304580688
    },
    "searchText": "ghriss airport ghriss muw daov"
  },
  {
    "id": "234",
    "name": "Touat Cheikh Sidi Mohamed Belkebir Airport",
    "city": "Adrar",
    "country": "Algeria",
    "iata": "AZR",
    "icao": "DAUA",
    "coordinates": {
      "latitude": 27.837600708007812,
      "longitude": -0.18641400337219238
    },
    "searchText": "touat cheikh sidi mohamed belkebir airport adrar azr daua"
  },
  {
    "id": "235",
    "name": "Biskra Airport",
    "city": "Biskra",
    "country": "Algeria",
    "iata": "BSK",
    "icao": "DAUB",
    "coordinates": {
      "latitude": 34.793300628699996,
      "longitude": 5.73823022842
    },
    "searchText": "biskra airport biskra bsk daub"
  },
  {
    "id": "236",
    "name": "El Golea Airport",
    "city": "El Golea",
    "country": "Algeria",
    "iata": "ELG",
    "icao": "DAUE",
    "coordinates": {
      "latitude": 30.571300506591797,
      "longitude": 2.8595900535583496
    },
    "searchText": "el golea airport el golea elg daue"
  },
  {
    "id": "237",
    "name": "Noumérat - Moufdi Zakaria Airport",
    "city": "Ghardaia",
    "country": "Algeria",
    "iata": "GHA",
    "icao": "DAUG",
    "coordinates": {
      "latitude": 32.38410186767578,
      "longitude": 3.794110059738159
    },
    "searchText": "noumérat - moufdi zakaria airport ghardaia gha daug"
  },
  {
    "id": "238",
    "name": "Oued Irara Airport",
    "city": "Hassi Messaoud",
    "country": "Algeria",
    "iata": "HME",
    "icao": "DAUH",
    "coordinates": {
      "latitude": 31.673000335699996,
      "longitude": 6.140439987180001
    },
    "searchText": "oued irara airport hassi messaoud hme dauh"
  },
  {
    "id": "239",
    "name": "In Salah Airport",
    "city": "In Salah",
    "country": "Algeria",
    "iata": "INZ",
    "icao": "DAUI",
    "coordinates": {
      "latitude": 27.250999450699997,
      "longitude": 2.51202011108
    },
    "searchText": "in salah airport in salah inz daui"
  },
  {
    "id": "240",
    "name": "Touggourt Sidi Madhi Airport",
    "city": "Touggourt",
    "country": "Algeria",
    "iata": "TGR",
    "icao": "DAUK",
    "coordinates": {
      "latitude": 33.06779861450195,
      "longitude": 6.088669776916504
    },
    "searchText": "touggourt sidi madhi airport touggourt tgr dauk"
  },
  {
    "id": "241",
    "name": "Laghouat Airport",
    "city": "Laghouat",
    "country": "Algeria",
    "iata": "LOO",
    "icao": "DAUL",
    "coordinates": {
      "latitude": 33.764400482199996,
      "longitude": 2.92833995819
    },
    "searchText": "laghouat airport laghouat loo daul"
  },
  {
    "id": "242",
    "name": "Timimoun Airport",
    "city": "Timimoun",
    "country": "Algeria",
    "iata": "TMX",
    "icao": "DAUT",
    "coordinates": {
      "latitude": 29.2371006012,
      "longitude": 0.276033014059
    },
    "searchText": "timimoun airport timimoun tmx daut"
  },
  {
    "id": "243",
    "name": "Ain el Beida Airport",
    "city": "Ouargla",
    "country": "Algeria",
    "iata": "OGX",
    "icao": "DAUU",
    "coordinates": {
      "latitude": 31.917200088500977,
      "longitude": 5.412779808044434
    },
    "searchText": "ain el beida airport ouargla ogx dauu"
  },
  {
    "id": "244",
    "name": "In Aménas Airport",
    "city": "Zarzaitine",
    "country": "Algeria",
    "iata": "IAM",
    "icao": "DAUZ",
    "coordinates": {
      "latitude": 28.0515,
      "longitude": 9.64291
    },
    "searchText": "in aménas airport zarzaitine iam dauz"
  },
  {
    "id": "245",
    "name": "Cadjehoun Airport",
    "city": "Cotonou",
    "country": "Benin",
    "iata": "COO",
    "icao": "DBBB",
    "coordinates": {
      "latitude": 6.357230186462402,
      "longitude": 2.384350061416626
    },
    "searchText": "cadjehoun airport cotonou coo dbbb"
  },
  {
    "id": "246",
    "name": "Ouagadougou Airport",
    "city": "Ouagadougou",
    "country": "Burkina Faso",
    "iata": "OUA",
    "icao": "DFFD",
    "coordinates": {
      "latitude": 12.3532,
      "longitude": -1.51242
    },
    "searchText": "ouagadougou airport ouagadougou oua dffd"
  },
  {
    "id": "247",
    "name": "Bobo Dioulasso Airport",
    "city": "Bobo-dioulasso",
    "country": "Burkina Faso",
    "iata": "BOY",
    "icao": "DFOO",
    "coordinates": {
      "latitude": 11.160099983215332,
      "longitude": -4.33096981048584
    },
    "searchText": "bobo dioulasso airport bobo-dioulasso boy dfoo"
  },
  {
    "id": "248",
    "name": "Kotoka International Airport",
    "city": "Accra",
    "country": "Ghana",
    "iata": "ACC",
    "icao": "DGAA",
    "coordinates": {
      "latitude": 5.605189800262451,
      "longitude": -0.16678600013256073
    },
    "searchText": "kotoka international airport accra acc dgaa"
  },
  {
    "id": "249",
    "name": "Tamale Airport",
    "city": "Tamale",
    "country": "Ghana",
    "iata": "TML",
    "icao": "DGLE",
    "coordinates": {
      "latitude": 9.55718994140625,
      "longitude": -0.8632140159606934
    },
    "searchText": "tamale airport tamale tml dgle"
  },
  {
    "id": "251",
    "name": "Sunyani Airport",
    "city": "Sunyani",
    "country": "Ghana",
    "iata": "NYI",
    "icao": "DGSN",
    "coordinates": {
      "latitude": 7.361830234527588,
      "longitude": -2.3287599086761475
    },
    "searchText": "sunyani airport sunyani nyi dgsn"
  },
  {
    "id": "252",
    "name": "Takoradi Airport",
    "city": "Takoradi",
    "country": "Ghana",
    "iata": "TKD",
    "icao": "DGTK",
    "coordinates": {
      "latitude": 4.896059989929199,
      "longitude": -1.7747600078582764
    },
    "searchText": "takoradi airport takoradi tkd dgtk"
  },
  {
    "id": "253",
    "name": "Port Bouet Airport",
    "city": "Abidjan",
    "country": "Cote d'Ivoire",
    "iata": "ABJ",
    "icao": "DIAP",
    "coordinates": {
      "latitude": 5.261390209197998,
      "longitude": -3.9262900352478027
    },
    "searchText": "port bouet airport abidjan abj diap"
  },
  {
    "id": "254",
    "name": "Bouaké Airport",
    "city": "Bouake",
    "country": "Cote d'Ivoire",
    "iata": "BYK",
    "icao": "DIBK",
    "coordinates": {
      "latitude": 7.738800048828125,
      "longitude": -5.073669910430908
    },
    "searchText": "bouaké airport bouake byk dibk"
  },
  {
    "id": "255",
    "name": "Daloa Airport",
    "city": "Daloa",
    "country": "Cote d'Ivoire",
    "iata": "DJO",
    "icao": "DIDL",
    "coordinates": {
      "latitude": 6.792809963226318,
      "longitude": -6.473189830780029
    },
    "searchText": "daloa airport daloa djo didl"
  },
  {
    "id": "256",
    "name": "Korhogo Airport",
    "city": "Korhogo",
    "country": "Cote d'Ivoire",
    "iata": "HGO",
    "icao": "DIKO",
    "coordinates": {
      "latitude": 9.38718032837,
      "longitude": -5.55666017532
    },
    "searchText": "korhogo airport korhogo hgo diko"
  },
  {
    "id": "257",
    "name": "Man Airport",
    "city": "Man",
    "country": "Cote d'Ivoire",
    "iata": "MJC",
    "icao": "DIMN",
    "coordinates": {
      "latitude": 7.272069931030273,
      "longitude": -7.58735990524292
    },
    "searchText": "man airport man mjc dimn"
  },
  {
    "id": "258",
    "name": "San Pedro Airport",
    "city": "San Pedro",
    "country": "Cote d'Ivoire",
    "iata": "SPY",
    "icao": "DISP",
    "coordinates": {
      "latitude": 4.746719837188721,
      "longitude": -6.660820007324219
    },
    "searchText": "san pedro airport san pedro spy disp"
  },
  {
    "id": "259",
    "name": "Yamoussoukro Airport",
    "city": "Yamoussoukro",
    "country": "Cote d'Ivoire",
    "iata": "ASK",
    "icao": "DIYO",
    "coordinates": {
      "latitude": 6.9031701088,
      "longitude": -5.36558008194
    },
    "searchText": "yamoussoukro airport yamoussoukro ask diyo"
  },
  {
    "id": "260",
    "name": "Nnamdi Azikiwe International Airport",
    "city": "Abuja",
    "country": "Nigeria",
    "iata": "ABV",
    "icao": "DNAA",
    "coordinates": {
      "latitude": 9.006790161132812,
      "longitude": 7.263169765472412
    },
    "searchText": "nnamdi azikiwe international airport abuja abv dnaa"
  },
  {
    "id": "261",
    "name": "Akure Airport",
    "city": "Akure",
    "country": "Nigeria",
    "iata": "AKR",
    "icao": "DNAK",
    "coordinates": {
      "latitude": 7.246739864349365,
      "longitude": 5.3010101318359375
    },
    "searchText": "akure airport akure akr dnak"
  },
  {
    "id": "262",
    "name": "Benin Airport",
    "city": "Benin",
    "country": "Nigeria",
    "iata": "BNI",
    "icao": "DNBE",
    "coordinates": {
      "latitude": 6.316979885101318,
      "longitude": 5.5995001792907715
    },
    "searchText": "benin airport benin bni dnbe"
  },
  {
    "id": "263",
    "name": "Margaret Ekpo International Airport",
    "city": "Calabar",
    "country": "Nigeria",
    "iata": "CBQ",
    "icao": "DNCA",
    "coordinates": {
      "latitude": 4.976019859313965,
      "longitude": 8.347200393676758
    },
    "searchText": "margaret ekpo international airport calabar cbq dnca"
  },
  {
    "id": "264",
    "name": "Akanu Ibiam International Airport",
    "city": "Enugu",
    "country": "Nigeria",
    "iata": "ENU",
    "icao": "DNEN",
    "coordinates": {
      "latitude": 6.474269866943359,
      "longitude": 7.561960220336914
    },
    "searchText": "akanu ibiam international airport enugu enu dnen"
  },
  {
    "id": "266",
    "name": "Ibadan Airport",
    "city": "Ibadan",
    "country": "Nigeria",
    "iata": "IBA",
    "icao": "DNIB",
    "coordinates": {
      "latitude": 7.362460136413574,
      "longitude": 3.97832989692688
    },
    "searchText": "ibadan airport ibadan iba dnib"
  },
  {
    "id": "267",
    "name": "Ilorin International Airport",
    "city": "Ilorin",
    "country": "Nigeria",
    "iata": "ILR",
    "icao": "DNIL",
    "coordinates": {
      "latitude": 8.440210342407227,
      "longitude": 4.493919849395752
    },
    "searchText": "ilorin international airport ilorin ilr dnil"
  },
  {
    "id": "268",
    "name": "Yakubu Gowon Airport",
    "city": "Jos",
    "country": "Nigeria",
    "iata": "JOS",
    "icao": "DNJO",
    "coordinates": {
      "latitude": 9.639829635620117,
      "longitude": 8.869050025939941
    },
    "searchText": "yakubu gowon airport jos jos dnjo"
  },
  {
    "id": "269",
    "name": "Kaduna Airport",
    "city": "Kaduna",
    "country": "Nigeria",
    "iata": "KAD",
    "icao": "DNKA",
    "coordinates": {
      "latitude": 10.696000099182129,
      "longitude": 7.320109844207764
    },
    "searchText": "kaduna airport kaduna kad dnka"
  },
  {
    "id": "270",
    "name": "Mallam Aminu International Airport",
    "city": "Kano",
    "country": "Nigeria",
    "iata": "KAN",
    "icao": "DNKN",
    "coordinates": {
      "latitude": 12.0476,
      "longitude": 8.52462
    },
    "searchText": "mallam aminu international airport kano kan dnkn"
  },
  {
    "id": "271",
    "name": "Maiduguri International Airport",
    "city": "Maiduguri",
    "country": "Nigeria",
    "iata": "MIU",
    "icao": "DNMA",
    "coordinates": {
      "latitude": 11.855299949645996,
      "longitude": 13.080900192260742
    },
    "searchText": "maiduguri international airport maiduguri miu dnma"
  },
  {
    "id": "272",
    "name": "Makurdi Airport",
    "city": "Makurdi",
    "country": "Nigeria",
    "iata": "MDI",
    "icao": "DNMK",
    "coordinates": {
      "latitude": 7.70388,
      "longitude": 8.61394
    },
    "searchText": "makurdi airport makurdi mdi dnmk"
  },
  {
    "id": "273",
    "name": "Murtala Muhammed International Airport",
    "city": "Lagos",
    "country": "Nigeria",
    "iata": "LOS",
    "icao": "DNMM",
    "coordinates": {
      "latitude": 6.5773701667785645,
      "longitude": 3.321160078048706
    },
    "searchText": "murtala muhammed international airport lagos los dnmm"
  },
  {
    "id": "274",
    "name": "Minna Airport",
    "city": "Minna",
    "country": "Nigeria",
    "iata": "MXJ",
    "icao": "DNMN",
    "coordinates": {
      "latitude": 9.652170181274414,
      "longitude": 6.462259769439697
    },
    "searchText": "minna airport minna mxj dnmn"
  },
  {
    "id": "275",
    "name": "Port Harcourt International Airport",
    "city": "Port Hartcourt",
    "country": "Nigeria",
    "iata": "PHC",
    "icao": "DNPO",
    "coordinates": {
      "latitude": 5.0154900550842285,
      "longitude": 6.94959020614624
    },
    "searchText": "port harcourt international airport port hartcourt phc dnpo"
  },
  {
    "id": "276",
    "name": "Sadiq Abubakar III International Airport",
    "city": "Sokoto",
    "country": "Nigeria",
    "iata": "SKO",
    "icao": "DNSO",
    "coordinates": {
      "latitude": 12.916299819946289,
      "longitude": 5.207190036773682
    },
    "searchText": "sadiq abubakar iii international airport sokoto sko dnso"
  },
  {
    "id": "277",
    "name": "Yola Airport",
    "city": "Yola",
    "country": "Nigeria",
    "iata": "YOL",
    "icao": "DNYO",
    "coordinates": {
      "latitude": 9.257550239562988,
      "longitude": 12.430399894714355
    },
    "searchText": "yola airport yola yol dnyo"
  },
  {
    "id": "278",
    "name": "Zaria Airport",
    "city": "Zaria",
    "country": "Nigeria",
    "iata": "ZAR",
    "icao": "DNZA",
    "coordinates": {
      "latitude": 11.1302,
      "longitude": 7.68581
    },
    "searchText": "zaria airport zaria zar dnza"
  },
  {
    "id": "279",
    "name": "Maradi Airport",
    "city": "Maradi",
    "country": "Niger",
    "iata": "MFQ",
    "icao": "DRRM",
    "coordinates": {
      "latitude": 13.5024995803833,
      "longitude": 7.1267499923706055
    },
    "searchText": "maradi airport maradi mfq drrm"
  },
  {
    "id": "280",
    "name": "Diori Hamani International Airport",
    "city": "Niamey",
    "country": "Niger",
    "iata": "NIM",
    "icao": "DRRN",
    "coordinates": {
      "latitude": 13.4815,
      "longitude": 2.18361
    },
    "searchText": "diori hamani international airport niamey nim drrn"
  },
  {
    "id": "281",
    "name": "Tahoua Airport",
    "city": "Tahoua",
    "country": "Niger",
    "iata": "THZ",
    "icao": "DRRT",
    "coordinates": {
      "latitude": 14.875699996948242,
      "longitude": 5.265359878540039
    },
    "searchText": "tahoua airport tahoua thz drrt"
  },
  {
    "id": "282",
    "name": "Mano Dayak International Airport",
    "city": "Agadez",
    "country": "Niger",
    "iata": "AJY",
    "icao": "DRZA",
    "coordinates": {
      "latitude": 16.965999603271484,
      "longitude": 8.000109672546387
    },
    "searchText": "mano dayak international airport agadez ajy drza"
  },
  {
    "id": "285",
    "name": "Zinder Airport",
    "city": "Zinder",
    "country": "Niger",
    "iata": "ZND",
    "icao": "DRZR",
    "coordinates": {
      "latitude": 13.779000282287598,
      "longitude": 8.983759880065918
    },
    "searchText": "zinder airport zinder znd drzr"
  },
  {
    "id": "286",
    "name": "Monastir Habib Bourguiba International Airport",
    "city": "Monastir",
    "country": "Tunisia",
    "iata": "MIR",
    "icao": "DTMB",
    "coordinates": {
      "latitude": 35.75809860229492,
      "longitude": 10.75469970703125
    },
    "searchText": "monastir habib bourguiba international airport monastir mir dtmb"
  },
  {
    "id": "287",
    "name": "Tunis Carthage International Airport",
    "city": "Tunis",
    "country": "Tunisia",
    "iata": "TUN",
    "icao": "DTTA",
    "coordinates": {
      "latitude": 36.85100173950195,
      "longitude": 10.22719955444336
    },
    "searchText": "tunis carthage international airport tunis tun dtta"
  },
  {
    "id": "290",
    "name": "Gafsa Ksar International Airport",
    "city": "Gafsa",
    "country": "Tunisia",
    "iata": "GAF",
    "icao": "DTTF",
    "coordinates": {
      "latitude": 34.422000885009766,
      "longitude": 8.822500228881836
    },
    "searchText": "gafsa ksar international airport gafsa gaf dttf"
  },
  {
    "id": "291",
    "name": "Gabès Matmata International Airport",
    "city": "Gabes",
    "country": "Tunisia",
    "iata": "GAE",
    "icao": "DTTG",
    "coordinates": {
      "latitude": 33.87689971923828,
      "longitude": 10.103300094604492
    },
    "searchText": "gabès matmata international airport gabes gae dttg"
  },
  {
    "id": "293",
    "name": "Djerba Zarzis International Airport",
    "city": "Djerba",
    "country": "Tunisia",
    "iata": "DJE",
    "icao": "DTTJ",
    "coordinates": {
      "latitude": 33.875,
      "longitude": 10.775500297546387
    },
    "searchText": "djerba zarzis international airport djerba dje dttj"
  },
  {
    "id": "294",
    "name": "El Borma Airport",
    "city": "El Borma",
    "country": "Tunisia",
    "iata": "EBM",
    "icao": "DTTR",
    "coordinates": {
      "latitude": 31.704299926757812,
      "longitude": 9.254619598388672
    },
    "searchText": "el borma airport el borma ebm dttr"
  },
  {
    "id": "295",
    "name": "Sfax Thyna International Airport",
    "city": "Sfax",
    "country": "Tunisia",
    "iata": "SFA",
    "icao": "DTTX",
    "coordinates": {
      "latitude": 34.71799850463867,
      "longitude": 10.690999984741211
    },
    "searchText": "sfax thyna international airport sfax sfa dttx"
  },
  {
    "id": "296",
    "name": "Tozeur Nefta International Airport",
    "city": "Tozeur",
    "country": "Tunisia",
    "iata": "TOE",
    "icao": "DTTZ",
    "coordinates": {
      "latitude": 33.939701080322266,
      "longitude": 8.110560417175293
    },
    "searchText": "tozeur nefta international airport tozeur toe dttz"
  },
  {
    "id": "297",
    "name": "Niamtougou International Airport",
    "city": "Niatougou",
    "country": "Togo",
    "iata": "LRL",
    "icao": "DXNG",
    "coordinates": {
      "latitude": 9.767330169677734,
      "longitude": 1.091249942779541
    },
    "searchText": "niamtougou international airport niatougou lrl dxng"
  },
  {
    "id": "298",
    "name": "Lomé-Tokoin Airport",
    "city": "Lome",
    "country": "Togo",
    "iata": "LFW",
    "icao": "DXXX",
    "coordinates": {
      "latitude": 6.165609836578369,
      "longitude": 1.2545100450515747
    },
    "searchText": "lomé-tokoin airport lome lfw dxxx"
  },
  {
    "id": "299",
    "name": "Antwerp International Airport (Deurne)",
    "city": "Antwerp",
    "country": "Belgium",
    "iata": "ANR",
    "icao": "EBAW",
    "coordinates": {
      "latitude": 51.1893997192,
      "longitude": 4.46027994156
    },
    "searchText": "antwerp international airport (deurne) antwerp anr ebaw"
  },
  {
    "id": "302",
    "name": "Brussels Airport",
    "city": "Brussels",
    "country": "Belgium",
    "iata": "BRU",
    "icao": "EBBR",
    "coordinates": {
      "latitude": 50.901401519800004,
      "longitude": 4.48443984985
    },
    "searchText": "brussels airport brussels bru ebbr"
  },
  {
    "id": "304",
    "name": "Brussels South Charleroi Airport",
    "city": "Charleroi",
    "country": "Belgium",
    "iata": "CRL",
    "icao": "EBCI",
    "coordinates": {
      "latitude": 50.459202,
      "longitude": 4.45382
    },
    "searchText": "brussels south charleroi airport charleroi crl ebci"
  },
  {
    "id": "308",
    "name": "Wevelgem Airport",
    "city": "Kortrijk-vevelgem",
    "country": "Belgium",
    "iata": "KJK",
    "icao": "EBKT",
    "coordinates": {
      "latitude": 50.817199707,
      "longitude": 3.20472002029
    },
    "searchText": "wevelgem airport kortrijk-vevelgem kjk ebkt"
  },
  {
    "id": "309",
    "name": "Liège Airport",
    "city": "Liege",
    "country": "Belgium",
    "iata": "LGG",
    "icao": "EBLG",
    "coordinates": {
      "latitude": 50.63740158081055,
      "longitude": 5.443220138549805
    },
    "searchText": "liège airport liege lgg eblg"
  },
  {
    "id": "310",
    "name": "Ostend-Bruges International Airport",
    "city": "Ostend",
    "country": "Belgium",
    "iata": "OST",
    "icao": "EBOS",
    "coordinates": {
      "latitude": 51.198898315399994,
      "longitude": 2.8622200489
    },
    "searchText": "ostend-bruges international airport ostend ost ebos"
  },
  {
    "id": "316",
    "name": "Zoersel (Oostmalle) Airfield",
    "city": "Zoersel",
    "country": "Belgium",
    "iata": "OBL",
    "icao": "EBZR",
    "coordinates": {
      "latitude": 51.264702,
      "longitude": 4.75333
    },
    "searchText": "zoersel (oostmalle) airfield zoersel obl ebzr"
  },
  {
    "id": "318",
    "name": "Altenburg-Nobitz Airport",
    "city": "Altenburg",
    "country": "Germany",
    "iata": "AOC",
    "icao": "EDAC",
    "coordinates": {
      "latitude": 50.981945,
      "longitude": 12.506389
    },
    "searchText": "altenburg-nobitz airport altenburg aoc edac"
  },
  {
    "id": "325",
    "name": "Riesa-Göhlis Airport",
    "city": "Riesa",
    "country": "Germany",
    "iata": "IES",
    "icao": "EDAU",
    "coordinates": {
      "latitude": 51.2936096191,
      "longitude": 13.3561105728
    },
    "searchText": "riesa-göhlis airport riesa ies edau"
  },
  {
    "id": "326",
    "name": "Rechlin-Lärz Airport",
    "city": "Rechlin-laerz",
    "country": "Germany",
    "iata": "REB",
    "icao": "EDAX",
    "coordinates": {
      "latitude": 53.306388855,
      "longitude": 12.7522220612
    },
    "searchText": "rechlin-lärz airport rechlin-laerz reb edax"
  },
  {
    "id": "328",
    "name": "Schönhagen Airport",
    "city": "Schoenhagen",
    "country": "Germany",
    "iata": "QXH",
    "icao": "EDAZ",
    "coordinates": {
      "latitude": 52.203609,
      "longitude": 13.156389
    },
    "searchText": "schönhagen airport schoenhagen qxh edaz"
  },
  {
    "id": "329",
    "name": "Barth Airport",
    "city": "Barth",
    "country": "Germany",
    "iata": "BBH",
    "icao": "EDBH",
    "coordinates": {
      "latitude": 54.338253,
      "longitude": 12.710515
    },
    "searchText": "barth airport barth bbh edbh"
  },
  {
    "id": "332",
    "name": "Magdeburg City Airport",
    "city": "Magdeburg",
    "country": "Germany",
    "iata": "ZMG",
    "icao": "EDBM",
    "coordinates": {
      "latitude": 52.073612,
      "longitude": 11.626389
    },
    "searchText": "magdeburg city airport magdeburg zmg edbm"
  },
  {
    "id": "335",
    "name": "Cottbus-Drewitz Airport",
    "city": "Cottbus",
    "country": "Germany",
    "iata": "CBU",
    "icao": "EDCD",
    "coordinates": {
      "latitude": 51.889442,
      "longitude": 14.531944
    },
    "searchText": "cottbus-drewitz airport cottbus cbu edcd"
  },
  {
    "id": "337",
    "name": "Berlin-Schönefeld Airport",
    "city": "Berlin",
    "country": "Germany",
    "iata": "SXF",
    "icao": "EDDB",
    "coordinates": {
      "latitude": 52.380001,
      "longitude": 13.5225
    },
    "searchText": "berlin-schönefeld airport berlin sxf eddb"
  },
  {
    "id": "338",
    "name": "Dresden Airport",
    "city": "Dresden",
    "country": "Germany",
    "iata": "DRS",
    "icao": "EDDC",
    "coordinates": {
      "latitude": 51.1328010559082,
      "longitude": 13.767200469970703
    },
    "searchText": "dresden airport dresden drs eddc"
  },
  {
    "id": "339",
    "name": "Erfurt Airport",
    "city": "Erfurt",
    "country": "Germany",
    "iata": "ERF",
    "icao": "EDDE",
    "coordinates": {
      "latitude": 50.979801177978516,
      "longitude": 10.958100318908691
    },
    "searchText": "erfurt airport erfurt erf edde"
  },
  {
    "id": "340",
    "name": "Frankfurt am Main Airport",
    "city": "Frankfurt",
    "country": "Germany",
    "iata": "FRA",
    "icao": "EDDF",
    "coordinates": {
      "latitude": 50.033333,
      "longitude": 8.570556
    },
    "searchText": "frankfurt am main airport frankfurt fra eddf"
  },
  {
    "id": "341",
    "name": "Münster Osnabrück Airport",
    "city": "Munster",
    "country": "Germany",
    "iata": "FMO",
    "icao": "EDDG",
    "coordinates": {
      "latitude": 52.134601593,
      "longitude": 7.68483018875
    },
    "searchText": "münster osnabrück airport munster fmo eddg"
  },
  {
    "id": "342",
    "name": "Hamburg Airport",
    "city": "Hamburg",
    "country": "Germany",
    "iata": "HAM",
    "icao": "EDDH",
    "coordinates": {
      "latitude": 53.630401611328,
      "longitude": 9.9882297515869
    },
    "searchText": "hamburg airport hamburg ham eddh"
  },
  {
    "id": "343",
    "name": "Berlin-Tempelhof International Airport",
    "city": "Berlin",
    "country": "Germany",
    "iata": "THF",
    "icao": "EDDI",
    "coordinates": {
      "latitude": 52.472999572753906,
      "longitude": 13.403900146484375
    },
    "searchText": "berlin-tempelhof international airport berlin thf eddi"
  },
  {
    "id": "344",
    "name": "Cologne Bonn Airport",
    "city": "Cologne",
    "country": "Germany",
    "iata": "CGN",
    "icao": "EDDK",
    "coordinates": {
      "latitude": 50.8658981323,
      "longitude": 7.1427397728
    },
    "searchText": "cologne bonn airport cologne cgn eddk"
  },
  {
    "id": "345",
    "name": "Düsseldorf Airport",
    "city": "Duesseldorf",
    "country": "Germany",
    "iata": "DUS",
    "icao": "EDDL",
    "coordinates": {
      "latitude": 51.289501,
      "longitude": 6.76678
    },
    "searchText": "düsseldorf airport duesseldorf dus eddl"
  },
  {
    "id": "346",
    "name": "Munich Airport",
    "city": "Munich",
    "country": "Germany",
    "iata": "MUC",
    "icao": "EDDM",
    "coordinates": {
      "latitude": 48.353802,
      "longitude": 11.7861
    },
    "searchText": "munich airport munich muc eddm"
  },
  {
    "id": "347",
    "name": "Nuremberg Airport",
    "city": "Nuernberg",
    "country": "Germany",
    "iata": "NUE",
    "icao": "EDDN",
    "coordinates": {
      "latitude": 49.498699,
      "longitude": 11.078056
    },
    "searchText": "nuremberg airport nuernberg nue eddn"
  },
  {
    "id": "348",
    "name": "Leipzig/Halle Airport",
    "city": "Leipzig",
    "country": "Germany",
    "iata": "LEJ",
    "icao": "EDDP",
    "coordinates": {
      "latitude": 51.423889,
      "longitude": 12.236389
    },
    "searchText": "leipzig/halle airport leipzig lej eddp"
  },
  {
    "id": "349",
    "name": "Saarbrücken Airport",
    "city": "Saarbruecken",
    "country": "Germany",
    "iata": "SCN",
    "icao": "EDDR",
    "coordinates": {
      "latitude": 49.214599609400004,
      "longitude": 7.10950994492
    },
    "searchText": "saarbrücken airport saarbruecken scn eddr"
  },
  {
    "id": "350",
    "name": "Stuttgart Airport",
    "city": "Stuttgart",
    "country": "Germany",
    "iata": "STR",
    "icao": "EDDS",
    "coordinates": {
      "latitude": 48.689899444599995,
      "longitude": 9.22196006775
    },
    "searchText": "stuttgart airport stuttgart str edds"
  },
  {
    "id": "351",
    "name": "Berlin-Tegel Airport",
    "city": "Berlin",
    "country": "Germany",
    "iata": "TXL",
    "icao": "EDDT",
    "coordinates": {
      "latitude": 52.5597,
      "longitude": 13.2877
    },
    "searchText": "berlin-tegel airport berlin txl eddt"
  },
  {
    "id": "352",
    "name": "Hannover Airport",
    "city": "Hannover",
    "country": "Germany",
    "iata": "HAJ",
    "icao": "EDDV",
    "coordinates": {
      "latitude": 52.461101532,
      "longitude": 9.685079574580001
    },
    "searchText": "hannover airport hannover haj eddv"
  },
  {
    "id": "353",
    "name": "Bremen Airport",
    "city": "Bremen",
    "country": "Germany",
    "iata": "BRE",
    "icao": "EDDW",
    "coordinates": {
      "latitude": 53.0475006104,
      "longitude": 8.78666973114
    },
    "searchText": "bremen airport bremen bre eddw"
  },
  {
    "id": "354",
    "name": "Frankfurt-Egelsbach Airport",
    "city": "Egelsbach",
    "country": "Germany",
    "iata": "QEF",
    "icao": "EDFE",
    "coordinates": {
      "latitude": 49.959999,
      "longitude": 8.645833
    },
    "searchText": "frankfurt-egelsbach airport egelsbach qef edfe"
  },
  {
    "id": "355",
    "name": "Frankfurt-Hahn Airport",
    "city": "Hahn",
    "country": "Germany",
    "iata": "HHN",
    "icao": "EDFH",
    "coordinates": {
      "latitude": 49.9487,
      "longitude": 7.26389
    },
    "searchText": "frankfurt-hahn airport hahn hhn edfh"
  },
  {
    "id": "356",
    "name": "Mannheim-City Airport",
    "city": "Mannheim",
    "country": "Germany",
    "iata": "MHG",
    "icao": "EDFM",
    "coordinates": {
      "latitude": 49.473057,
      "longitude": 8.514167
    },
    "searchText": "mannheim-city airport mannheim mhg edfm"
  },
  {
    "id": "360",
    "name": "Eisenach-Kindel Airport",
    "city": "Eisenach",
    "country": "Germany",
    "iata": "EIB",
    "icao": "EDGE",
    "coordinates": {
      "latitude": 50.991604,
      "longitude": 10.47973
    },
    "searchText": "eisenach-kindel airport eisenach eib edge"
  },
  {
    "id": "361",
    "name": "Siegerland Airport",
    "city": "Siegerland",
    "country": "Germany",
    "iata": "SGE",
    "icao": "EDGS",
    "coordinates": {
      "latitude": 50.707698822021484,
      "longitude": 8.082969665527344
    },
    "searchText": "siegerland airport siegerland sge edgs"
  },
  {
    "id": "362",
    "name": "Hamburg-Finkenwerder Airport",
    "city": "Hamburg",
    "country": "Germany",
    "iata": "XFW",
    "icao": "EDHI",
    "coordinates": {
      "latitude": 53.5352783203125,
      "longitude": 9.835556030273438
    },
    "searchText": "hamburg-finkenwerder airport hamburg xfw edhi"
  },
  {
    "id": "363",
    "name": "Kiel-Holtenau Airport",
    "city": "Kiel",
    "country": "Germany",
    "iata": "KEL",
    "icao": "EDHK",
    "coordinates": {
      "latitude": 54.37944412231445,
      "longitude": 10.145277976989746
    },
    "searchText": "kiel-holtenau airport kiel kel edhk"
  },
  {
    "id": "364",
    "name": "Lübeck Blankensee Airport",
    "city": "Luebeck",
    "country": "Germany",
    "iata": "LBC",
    "icao": "EDHL",
    "coordinates": {
      "latitude": 53.8054008484,
      "longitude": 10.7192001343
    },
    "searchText": "lübeck blankensee airport luebeck lbc edhl"
  },